{"html_attributions": [], "next_page_token": "AeJbb3dtkgDEP7OPYTf7JG0WhpUW8sJLDenKWdP6ZSGf5wx9IXfBGlgSxwDPiXYTKZJcWjrYzEzrI9V_NVeIThjoEH6Ln7jw6cwq6sucm6KO_Yiii3sNVehIrTAdkm8eZb-trl8Nv38IsxoDH8qIi5U_j59UDiQkp54BRTjptlMjNg6bFegqir8RzLXKtSxpeKKEeDRSFFaGLFjGCL382dwNHshv1rRrnJ1faRUgRpTqqVYnCN2jmo1_YYcCUUlkM-fg7bFVGMZg890VeX1uRHhY1zG-u_vCNJKOxKbGTZIfC16aIiHZfTYIU7kvaFsgtI32Fhsd3xz6waS50iZ4v0wyfptZGUGPNhJ1v1VDUIA9IuLq0ajF7ioK91WG2hxwGj2iPMqxbLK2nlMTb86_3O7yNdmq16FUEaqWJa7yyeIeXi51WtKheQNHdLTLUsv3pJ3b8r-A4AQMVg", "results": [{"business_status": "OPERATIONAL", "geometry": {"location": {"lat": 31.7701734, "lng": 35.1978776}, "viewport": {"northeast": {"lat": 31.77166987989272, "lng": 35.19927957989272}, "southwest": {"lat": 31.76897022010727, "lng": 35.19657992010728}}}, "icon": "https://maps.gstatic.com/mapfiles/place_api/icons/v1/png_71/worship_jewish-71.png", "icon_background_color": "#7B9EB0", "icon_mask_base_uri": "https://maps.gstatic.com/mapfiles/place_api/icons/v2/worship_jewish_pinlet", "name": "Goldstein Synagogue", "photos": [{"height": 1080, "html_attributions": ["<a href=\"https://maps.google.com/maps/contrib/108109779141459353743\">\u05d9\u05e8\u05de\u05d9 \u05e9\u05d7\u05d5\u05e8</a>"], "photo_reference": "AeJbb3dWXEX7cO96KOoukxny5gPDB18oCyACkQ70iELebzTVsSO-tS6tm9Q9am2-38j4HDSV_ewcAbryGm-X4Q1Mx8YMGjeoe9L2iEy8hkdu6N9150w-skTk-Q4t8otfw3CvWwkPFAE-TyhMdesIJWWDzhKz4W_mUnfyCZV6VsNqBvFLdmtc", "width": 1920}], "place_id": "ChIJYevlDsbXAhURfaD5L668DWY", "plus_code": {"compound_code": "Q5CX+35 Jerusalem, Israel", "global_code": "8G3QQ5CX+35"}, "rating": 3.8, "reference": "ChIJYevlDsbXAhURfaD5L668DWY", "scope": "GOOGLE", "types": ["synagogue", "place_of_worship", "point_of_interest", "establishment"], "user_ratings_total": 26, "vicinity": "Jerusalem"}, {"business_status": "OPERATIONAL", "geometry": {"location": {"lat": 31.7556026, "lng": 35.2072292}, "viewport": {"northeast": {"lat": 31.75691942989272, "lng": 35.20862057989272}, "southwest": {"lat": 31.75421977010728, "lng": 35.20592092010727}}}, "icon": "https://maps.gstatic.com/mapfiles/place_api/icons/v1/png_71/worship_jewish-71.png", "icon_background_color": "#7B9EB0", "icon_mask_base_uri": "https://maps.gstatic.com/mapfiles/place_api/icons/v2/worship_jewish_pinlet", "name": "Or Yesharim Synagogue", "place_id": "ChIJIysRAefXAhURGYL9pMm77JI", "plus_code": {"compound_code": "Q644+7V Jerusalem, Israel", "global_code": "8G3QQ644+7V"}, "rating": 3.7, "reference": "ChIJIysRAefXAhURGYL9pMm77JI", "scope": "GOOGLE", "types": ["synagogue", "place_of_worship", "point_of_interest", "establishment"], "user_ratings_total": 7, "vicinity": "Yossi Ben Yo'ezer St 22, Jerusalem"}, {"business_status": "OPERATIONAL", "geometry": {"location": {"lat": 31.7508399, "lng": 35.2186037}, "viewport": {"northeast": {"lat": 31.75219867989271, "lng": 35.21995942989272}, "southwest": {"lat": 31.74949902010727, "lng": 35.21725977010728}}}, "icon": "https://maps.gstatic.com/mapfiles/place_api/icons/v1/png_71/worship_jewish-71.png", "icon_background_color": "#7B9EB0", "icon_mask_base_uri": "https://maps.gstatic.com/mapfiles/place_api/icons/v2/worship_jewish_pinlet", "name": "\u05d1\u05d9\u05ea \u05d4\u05db\u05e0\u05e1\u05ea \u05d9\u05e9\u05d5\u05e2\u05ea \u05d9\u05e9\u05e8\u05d0\u05dc", "photos": [{"height": 3024, "html_attributions": ["<a href=\"https://maps.google.com/maps/contrib/117641193586620969529\">DANI ELLA</a>"], "photo_reference": "AeJbb3c3nxdQom3wLyJZ3jrDF5SjU2NSUzRWqwGhMzSZg-JNNGHSYb8K8YRZl3leB-QNL-iBGdkzRCfxjt5dCjmeGcpzHkVBDFVAiKSdUqOJzEDAliIdJ-MSpiEv9A3u5eOgbBjnZ10PmIrm3aobRwDUuFJ3ka5hEePgK49mOJ7_voTW4_kl", "width": 4032}], "place_id": "ChIJO0tCLpUpAxURtTcVw1lltNU", "plus_code": {"compound_code": "Q629+8C Jerusalem, Israel", "global_code": "8G3QQ629+8C"}, "rating": 5, "reference": "ChIJO0tCLpUpAxURtTcVw1lltNU", "scope": "GOOGLE", "types": ["synagogue", "place_of_worship", "point_of_interest", "establishment"], "user_ratings_total": 2, "vicinity": "Hebron Rd 124, Jerusalem"}, {"business_status": "OPERATIONAL", "geometry": {"location": {"lat": 31.7703522, "lng": 35.2188925}, "viewport": {"northeast": {"lat": 31.77174147989272, "lng": 35.22024272989272}, "southwest": {"lat": 31.76904182010728, "lng": 35.21754307010727}}}, "icon": "https://maps.gstatic.com/mapfiles/place_api/icons/v1/png_71/worship_jewish-71.png", "icon_background_color": "#7B9EB0", "icon_mask_base_uri": "https://maps.gstatic.com/mapfiles/place_api/icons/v2/worship_jewish_pinlet", "name": "Hovevei Tzion Synagogue", "opening_hours": {"open_now": true}, "photos": [{"height": 4032, "html_attributions": ["<a href=\"https://maps.google.com/maps/contrib/115982504104756490112\">B Schendowich</a>"], "photo_reference": "AeJbb3dLUH0FmpzOeyH3GA6vFhfSIvjGYSjZs2T247lusGb1h-j-gs274GVzvOqccik480arF7S4-nY4p6BSBksIWBl4uRhUinWNIV7LA_5IiTDYqQAerK8Hm-JqxZqwK6DkraiByJa3yVJ73gD1lQnpvLkB_P2L3qdMfAI7z2M9jEyJd-VJ", "width": 3024}], "place_id": "ChIJBY70vysoAxURB7JUH-sF6So", "plus_code": {"compound_code": "Q6C9+4H Jerusalem, Israel", "global_code": "8G3QQ6C9+4H"}, "rating": 4.2, "reference": "ChIJBY70vysoAxURB7JUH-sF6So", "scope": "GOOGLE", "types": ["synagogue", "place_of_worship", "point_of_interest", "establishment"], "user_ratings_total": 34, "vicinity": "Hovevei Tsiyon St 14, Jerusalem"}, {"business_status": "OPERATIONAL", "geometry": {"location": {"lat": 31.7633541, "lng": 35.1867249}, "viewport": {"northeast": {"lat": 31.76465242989273, "lng": 35.18808632989273}, "southwest": {"lat": 31.76195277010729, "lng": 35.18538667010728}}}, "icon": "https://maps.gstatic.com/mapfiles/place_api/icons/v1/png_71/worship_jewish-71.png", "icon_background_color": "#7B9EB0", "icon_mask_base_uri": "https://maps.gstatic.com/mapfiles/place_api/icons/v2/worship_jewish_pinlet", "name": "\u05d1\u05d9\u05ea \u05db\u05e0\u05e1\u05ea \u05d1\u05d9\u05ea \u05d9\u05e2\u05e7\u05d1", "photos": [{"height": 4608, "html_attributions": ["<a href=\"https://maps.google.com/maps/contrib/100197718884095761376\">Ari C</a>"], "photo_reference": "AeJbb3cgvGl5c3tfTvudKWnAlWtKHrlGTosPynemAeE2nCn4oQBDd81teECghUkJrcDyrOaHLq80-kQSdIp87ZT47DSGBYcHT4DxY19eWXzH2_lQQI1EHuYG292y5uhgxlb84pAV779jFd0xG0wS3bhK3oo5dtK8TYGv7HzoGZuh48mfSXii", "width": 3456}], "place_id": "ChIJ-aq1qKnXAhUR87n7dllxd3o", "plus_code": {"compound_code": "Q57P+8M Jerusalem, Israel", "global_code": "8G3QQ57P+8M"}, "rating": 0, "reference": "ChIJ-aq1qKnXAhUR87n7dllxd3o", "scope": "GOOGLE", "types": ["synagogue", "place_of_worship", "point_of_interest", "establishment"], "user_ratings_total": 0, "vicinity": "HaRav Frank St 31, Jerusalem"}, {"business_status": "OPERATIONAL", "geometry": {"location": {"lat": 31.768959, "lng": 35.2139441}, "viewport": {"northeast": {"lat": 31.77024942989272, "lng": 35.21533272989273}, "southwest": {"lat": 31.76754977010728, "lng": 35.21263307010728}}}, "icon": "https://maps.gstatic.com/mapfiles/place_api/icons/v1/png_71/worship_jewish-71.png", "icon_background_color": "#7B9EB0", "icon_mask_base_uri": "https://maps.gstatic.com/mapfiles/place_api/icons/v2/worship_jewish_pinlet", "name": "Jerusalem synagogue", "place_id": "ChIJf7NvN0DXAhURF8bIsEVcHbk", "plus_code": {"compound_code": "Q697+JH Jerusalem, Israel", "global_code": "8G3QQ697+JH"}, "rating": 5, "reference": "ChIJf7NvN0DXAhURF8bIsEVcHbk", "scope": "GOOGLE", "types": ["synagogue", "place_of_worship", "point_of_interest", "establishment"], "user_ratings_total": 1, "vicinity": "Chopin St 1, Jerusalem"}, {"business_status": "OPERATIONAL", "geometry": {"location": {"lat": 31.7549208, "lng": 35.1835633}, "viewport": {"northeast": {"lat": 31.75626992989272, "lng": 35.18485442989272}, "southwest": {"lat": 31.75357027010728, "lng": 35.18215477010728}}}, "icon": "https://maps.gstatic.com/mapfiles/place_api/icons/v1/png_71/worship_jewish-71.png", "icon_background_color": "#7B9EB0", "icon_mask_base_uri": "https://maps.gstatic.com/mapfiles/place_api/icons/v2/worship_jewish_pinlet", "name": "Yehuda Synagogue damper", "place_id": "ChIJ30VD3I_XAhURPYgDmFDkLr4", "plus_code": {"compound_code": "Q53M+XC Jerusalem, Israel", "global_code": "8G3QQ53M+XC"}, "rating": 4.3, "reference": "ChIJ30VD3I_XAhURPYgDmFDkLr4", "scope": "GOOGLE", "types": ["synagogue", "place_of_worship", "point_of_interest", "establishment"], "user_ratings_total": 12, "vicinity": "Jerusalem"}, {"business_status": "OPERATIONAL", "geometry": {"location": {"lat": 31.7709091, "lng": 35.21832000000001}, "viewport": {"northeast": {"lat": 31.77225792989272, "lng": 35.21974557989272}, "southwest": {"lat": 31.76955827010728, "lng": 35.21704592010728}}}, "icon": "https://maps.gstatic.com/mapfiles/place_api/icons/v1/png_71/worship_jewish-71.png", "icon_background_color": "#7B9EB0", "icon_mask_base_uri": "https://maps.gstatic.com/mapfiles/place_api/icons/v2/worship_jewish_pinlet", "name": "Yisa Bracha Synagogue", "photos": [{"height": 1080, "html_attributions": ["<a href=\"https://maps.google.com/maps/contrib/114975605532757883926\">Dan Rutstein</a>"], "photo_reference": "AeJbb3fYBbEZhoUELQJ2otQLteYzw_LOIZPLhVxIsMU-RTP-zcaYbL-Ahn_1uW6AH5wY35bHaurm29964g8gHlVoSJOkBWGrFL6Bd74Az1WbSF8zFJQUrI93tXcX1XqgbWGfMh9x9hcxBiQaNn1PVYovLuSy-3IZCpcL93960erCuneSxHm5", "width": 1920}], "place_id": "ChIJRUkNuisoAxURlbEVgAynsHk", "plus_code": {"compound_code": "Q6C9+98 Jerusalem, Israel", "global_code": "8G3QQ6C9+98"}, "rating": 4.4, "reference": "ChIJRUkNuisoAxURlbEVgAynsHk", "scope": "GOOGLE", "types": ["synagogue", "place_of_worship", "point_of_interest", "establishment"], "user_ratings_total": 28, "vicinity": "Jerusalem"}, {"business_status": "OPERATIONAL", "geometry": {"location": {"lat": 31.7686191, "lng": 35.220901}, "viewport": {"northeast": {"lat": 31.76997512989272, "lng": 35.22239687989272}, "southwest": {"lat": 31.76727547010728, "lng": 35.21969722010728}}}, "icon": "https://maps.gstatic.com/mapfiles/place_api/icons/v1/png_71/worship_jewish-71.png", "icon_background_color": "#7B9EB0", "icon_mask_base_uri": "https://maps.gstatic.com/mapfiles/place_api/icons/v2/worship_jewish_pinlet", "name": "Beit Kneset Migdal Hashoshanim", "opening_hours": {"open_now": false}, "photos": [{"height": 1920, "html_attributions": ["<a href=\"https://maps.google.com/maps/contrib/106337299827554869699\">Moises Zack</a>"], "photo_reference": "AeJbb3caFOVp39LQcXdq6YqhZ2jGwcBWR-HDvOBdIIN7WG_RjmcSEiqF0PNP0GUHxX0z6xzWnNVNJTSKrCm2hf4HHRLRawZvF8nfVPPbCTOcouCJjV5pwofHhksAraHmE56Vw8DONS7NakJCto8tTfmSA6slwk2KVi15TtRX_qm-uROEeM9i", "width": 1080}], "place_id": "ChIJg6B9AywoAxURT-QVOJ5Kw5I", "plus_code": {"compound_code": "Q69C+C9 Jerusalem, Israel", "global_code": "8G3QQ69C+C9"}, "rating": 4.7, "reference": "ChIJg6B9AywoAxURT-QVOJ5Kw5I", "scope": "GOOGLE", "types": ["synagogue", "place_of_worship", "point_of_interest", "establishment"], "user_ratings_total": 13, "vicinity": "Jerusalem"}, {"business_status": "OPERATIONAL", "geometry": {"location": {"lat": 31.752555, "lng": 35.219738}, "viewport": {"northeast": {"lat": 31.75390967989271, "lng": 35.22107092989271}, "southwest": {"lat": 31.75121002010727, "lng": 35.21837127010727}}}, "icon": "https://maps.gstatic.com/mapfiles/place_api/icons/v1/png_71/worship_jewish-71.png", "icon_background_color": "#7B9EB0", "icon_mask_base_uri": "https://maps.gstatic.com/mapfiles/place_api/icons/v2/worship_jewish_pinlet", "name": "Beit Knesset Bnei Yesaschar", "opening_hours": {"open_now": false}, "place_id": "ChIJz8H_L0UpAxURgrqlY4zMBTI", "plus_code": {"compound_code": "Q639+2V Jerusalem, Israel", "global_code": "8G3QQ639+2V"}, "rating": 0, "reference": "ChIJz8H_L0UpAxURgrqlY4zMBTI", "scope": "GOOGLE", "types": ["synagogue", "place_of_worship", "point_of_interest", "establishment"], "user_ratings_total": 0, "vicinity": "Hebron Rd 108, Jerusalem"}, {"business_status": "OPERATIONAL", "geometry": {"location": {"lat": 31.7601978, "lng": 35.2050297}, "viewport": {"northeast": {"lat": 31.76158352989272, "lng": 35.20652352989272}, "southwest": {"lat": 31.75888387010728, "lng": 35.20382387010728}}}, "icon": "https://maps.gstatic.com/mapfiles/place_api/icons/v1/png_71/worship_jewish-71.png", "icon_background_color": "#7B9EB0", "icon_mask_base_uri": "https://maps.gstatic.com/mapfiles/place_api/icons/v2/worship_jewish_pinlet", "name": "Kehillat Mevakshei Derech", "photos": [{"height": 4608, "html_attributions": ["<a href=\"https://maps.google.com/maps/contrib/108690537788328530349\">\u05ea\u05de\u05d9 \u05d1\u05df \u05d3\u05d5\u05d3 \u05d9\u05d5\u05e0\u05d4</a>"], "photo_reference": "AeJbb3fM4A99kGiQ8sWs3B8QARZHLrwunTyL0sRCq_6BOtNSAm2wC3QcrbVfdjcU_BMHI80YwIxO0KKsXVTHC0yd2bmLdYPddaBZBMbkTmK8WgWaL9-PScg7PSNF0KzsSovv0a2TUT9KQlp5nwd-eEuvFH4gg9tSMjjX2VpfGk4hCf1o4ZqJ", "width": 2592}], "place_id": "ChIJszTUad3XAhURwZCdbw31eNA", "plus_code": {"compound_code": "Q664+32 Jerusalem, Israel", "global_code": "8G3QQ664+32"}, "rating": 3.6, "reference": "ChIJszTUad3XAhURwZCdbw31eNA", "scope": "GOOGLE", "types": ["synagogue", "place_of_worship", "point_of_interest", "establishment"], "user_ratings_total": 53, "vicinity": "Sderot Shai Agnon 22, Jerusalem"}, {"business_status": "OPERATIONAL", "geometry": {"location": {"lat": 31.7529554, "lng": 35.1944554}, "viewport": {"northeast": {"lat": 31.75421302989272, "lng": 35.19579527989272}, "southwest": {"lat": 31.75151337010728, "lng": 35.19309562010728}}}, "icon": "https://maps.gstatic.com/mapfiles/place_api/icons/v1/png_71/worship_jewish-71.png", "icon_background_color": "#7B9EB0", "icon_mask_base_uri": "https://maps.gstatic.com/mapfiles/place_api/icons/v2/worship_jewish_pinlet", "name": "Heikhal Ya'akov Synagogue", "photos": [{"height": 4160, "html_attributions": ["<a href=\"https://maps.google.com/maps/contrib/102368087105332747010\">NOAM ezra</a>"], "photo_reference": "AeJbb3dpXdJRnCV8c1udAUYumG1uMCXwYOluF_bNVlFg6nJDw7wNdR0J899eIzCcaa7JFb8U_Vh-OOWBGluCuA5Awk2mqLBnczE1LP2kyQ27H9s91fDNLGGBxzuwKwigmR0bvzR60UK02YoEmKQUInoJBsVuFtYa6L-J0508QVx7dJGGCMwX", "width": 3120}], "place_id": "ChIJT-X9Q-3XAhURQI1U3dfeUaQ", "plus_code": {"compound_code": "Q53V+5Q Jerusalem, Israel", "global_code": "8G3QQ53V+5Q"}, "rating": 4.6, "reference": "ChIJT-X9Q-3XAhURQI1U3dfeUaQ", "scope": "GOOGLE", "types": ["synagogue", "place_of_worship", "point_of_interest", "establishment"], "user_ratings_total": 7, "vicinity": "Jerusalem"}, {"business_status": "OPERATIONAL", "geometry": {"location": {"lat": 31.7619875, "lng": 35.188334}, "viewport": {"northeast": {"lat": 31.76341382989272, "lng": 35.18960862989272}, "southwest": {"lat": 31.76071417010727, "lng": 35.18690897010728}}}, "icon": "https://maps.gstatic.com/mapfiles/place_api/icons/v1/png_71/worship_jewish-71.png", "icon_background_color": "#7B9EB0", "icon_mask_base_uri": "https://maps.gstatic.com/mapfiles/place_api/icons/v2/worship_jewish_pinlet", "name": "Midrash Sha'ul Synagogue", "place_id": "ChIJrZkWxJXXAhURncQ8wuO6jdU", "plus_code": {"compound_code": "Q56Q+Q8 Jerusalem, Israel", "global_code": "8G3QQ56Q+Q8"}, "rating": 4.5, "reference": "ChIJrZkWxJXXAhURncQ8wuO6jdU", "scope": "GOOGLE", "types": ["synagogue", "place_of_worship", "point_of_interest", "establishment"], "user_ratings_total": 4, "vicinity": "Jerusalem"}, {"business_status": "OPERATIONAL", "geometry": {"location": {"lat": 31.7677551, "lng": 35.1703745}, "viewport": {"northeast": {"lat": 31.76907082989272, "lng": 35.17174147989272}, "southwest": {"lat": 31.76637117010728, "lng": 35.16904182010727}}}, "icon": "https://maps.gstatic.com/mapfiles/place_api/icons/v1/png_71/worship_jewish-71.png", "icon_background_color": "#7B9EB0", "icon_mask_base_uri": "https://maps.gstatic.com/mapfiles/place_api/icons/v2/worship_jewish_pinlet", "name": "Central Synagogue", "opening_hours": {"open_now": true}, "photos": [{"height": 3000, "html_attributions": ["<a href=\"https://maps.google.com/maps/contrib/102812088834877317259\">Aram Mulier</a>"], "photo_reference": "AeJbb3cMM71vPQHs_FN94qlhuri0_Lvnfbzlo5iZPWpR4Thnedl8c5wploDL01MOK26DFnfEoJjVvBM1lDsASp3edq1FeTSW4Z-6hytLhGlMQy6keMj0_47xT_d_RnMzH3MK4HXSEHCC4WuXYXwLHdEs7JEsU9oXbq51yGbHYhQfFeKUFYVB", "width": 4000}], "place_id": "ChIJdb9VZHXXAhURWVA_aTqD9Xk", "plus_code": {"compound_code": "Q59C+44 Jerusalem, Israel", "global_code": "8G3QQ59C+44"}, "rating": 4.6, "reference": "ChIJdb9VZHXXAhURWVA_aTqD9Xk", "scope": "GOOGLE", "types": ["synagogue", "place_of_worship", "point_of_interest", "establishment"], "user_ratings_total": 5, "vicinity": "Immanuel Olsvenger St 11, Jerusalem"}, {"business_status": "OPERATIONAL", "geometry": {"location": {"lat": 31.768319, "lng": 35.21371}, "viewport": {"northeast": {"lat": 31.76976767989272, "lng": 35.21497047989273}, "southwest": {"lat": 31.76706802010727, "lng": 35.21227082010729}}}, "icon": "https://maps.gstatic.com/mapfiles/place_api/icons/v1/png_71/worship_jewish-71.png", "icon_background_color": "#7B9EB0", "icon_mask_base_uri": "https://maps.gstatic.com/mapfiles/place_api/icons/v2/worship_jewish_pinlet", "name": "Chabad Ohel Avshalom Synagogue in Kiryat Yovel", "place_id": "ChIJG-L6WzXXAhURXLi1kkEmSOo", "plus_code": {"compound_code": "Q697+8F Jerusalem, Israel", "global_code": "8G3QQ697+8F"}, "rating": 0, "reference": "ChIJG-L6WzXXAhURXLi1kkEmSOo", "scope": "GOOGLE", "types": ["synagogue", "place_of_worship", "point_of_interest", "establishment"], "user_ratings_total": 0, "vicinity": "Rubinstein/Borochov, Jerusalem"}, {"business_status": "OPERATIONAL", "geometry": {"location": {"lat": 31.7475408, "lng": 35.2227435}, "viewport": {"northeast": {"lat": 31.74892632989272, "lng": 35.22399607989273}, "southwest": {"lat": 31.74622667010728, "lng": 35.22129642010728}}}, "icon": "https://maps.gstatic.com/mapfiles/place_api/icons/v1/png_71/worship_jewish-71.png", "icon_background_color": "#7B9EB0", "icon_mask_base_uri": "https://maps.gstatic.com/mapfiles/place_api/icons/v2/worship_jewish_pinlet", "name": "Tiferet Yisrael Shai Agnon Synagogue", "place_id": "ChIJie0BifEpAxURkqwoi9Hwh_s", "plus_code": {"compound_code": "P6XF+23 Jerusalem, Israel", "global_code": "8G3QP6XF+23"}, "rating": 4.4, "reference": "ChIJie0BifEpAxURkqwoi9Hwh_s", "scope": "GOOGLE", "types": ["synagogue", "place_of_worship", "point_of_interest", "establishment"], "user_ratings_total": 9, "vicinity": "Jerusalem"}, {"business_status": "OPERATIONAL", "geometry": {"location": {"lat": 31.7475665, "lng": 35.2227566}, "viewport": {"northeast": {"lat": 31.74895232989272, "lng": 35.22400712989272}, "southwest": {"lat": 31.74625267010728, "lng": 35.22130747010727}}}, "icon": "https://maps.gstatic.com/mapfiles/place_api/icons/v1/png_71/worship_jewish-71.png", "icon_background_color": "#7B9EB0", "icon_mask_base_uri": "https://maps.gstatic.com/mapfiles/place_api/icons/v2/worship_jewish_pinlet", "name": "\u05d1\u05d9\u05ea \u05db\u05e0\u05e1\u05ea \u05ea\u05e4\u05d0\u05e8\u05ea \u05d9\u05e9\u05e8\u05d0\u05dc \u05e2\u05f4\u05e9 \u05e9\u05f4\u05d9 \u05e2\u05d2\u05e0\u05d5\u05df", "photos": [{"height": 1920, "html_attributions": ["<a href=\"https://maps.google.com/maps/contrib/113717627099617430620\">A Google User</a>"], "photo_reference": "AeJbb3eWq3MamtD6mU_MmKUYWADUCN21-fKuzL3UFZlebbVbq1ZuOvQw1lTfJBUXKC8vdlB6GLDJs1w8NyUNPsgTPJZDcsShGYUoAzH79Y1VoJfC-Hzk0cIaYnlp-RYZ04gL4TeOKX0WYvLut1wdALrHN4yzYI1BbmN2mPckK0cwXnjD7Qor", "width": 4160}], "place_id": "ChIJubKNfhkoAxURAN_HOVxOmxs", "plus_code": {"compound_code": "P6XF+24 Jerusalem, Israel", "global_code": "8G3QP6XF+24"}, "rating": 4.4, "reference": "ChIJubKNfhkoAxURAN_HOVxOmxs", "scope": "GOOGLE", "types": ["synagogue", "place_of_worship", "point_of_interest", "establishment"], "user_ratings_total": 66, "vicinity": "Leib Yafe St 11, Jerusalem"}, {"business_status": "OPERATIONAL", "geometry": {"location": {"lat": 31.7673074, "lng": 35.21957340000001}, "viewport": {"northeast": {"lat": 31.76867312989272, "lng": 35.22089867989271}, "southwest": {"lat": 31.76597347010727, "lng": 35.21819902010727}}}, "icon": "https://maps.gstatic.com/mapfiles/place_api/icons/v1/png_71/worship_jewish-71.png", "icon_background_color": "#7B9EB0", "icon_mask_base_uri": "https://maps.gstatic.com/mapfiles/place_api/icons/v2/worship_jewish_pinlet", "name": "Shir Hadash - \u05e9\u05d9\u05e8 \u05d7\u05d3\u05e9", "opening_hours": {"open_now": true}, "photos": [{"height": 2752, "html_attributions": ["<a href=\"https://maps.google.com/maps/contrib/103454046901942139278\">A Google User</a>"], "photo_reference": "AeJbb3fDw4iYMZpK72UP_vBMC6j2r1Zu4dWaL-nvPD0VXYk-geUwRP5KLu5lBvgovPVLymMBYjqqH10zQznvVhpL_XgJ-MXKs1rTNsfeBI6w9yUhQbwWCMEcDQICPFnUxIEooq5WGt_UV-LIPbDedHnWMmOFX8cQf_hCI2-5EdrtQUO6Mpav", "width": 5664}], "place_id": "ChIJ_6bYJNbXAhUR3-j0PDSJNuk", "plus_code": {"compound_code": "Q689+WR Jerusalem, Israel", "global_code": "8G3QQ689+WR"}, "rating": 4, "reference": "ChIJ_6bYJNbXAhUR3-j0PDSJNuk", "scope": "GOOGLE", "types": ["synagogue", "place_of_worship", "point_of_interest", "establishment"], "user_ratings_total": 26, "vicinity": "\u05d9\u05e2\u05e7\u05d1 \u05e8\u05d5\u05d1\u05d9\u05df 1, Jerusalem"}, {"business_status": "OPERATIONAL", "geometry": {"location": {"lat": 31.7608278, "lng": 35.220905}, "viewport": {"northeast": {"lat": 31.76218977989272, "lng": 35.22222062989272}, "southwest": {"lat": 31.75949012010728, "lng": 35.21952097010728}}}, "icon": "https://maps.gstatic.com/mapfiles/place_api/icons/v1/png_71/worship_jewish-71.png", "icon_background_color": "#7B9EB0", "icon_mask_base_uri": "https://maps.gstatic.com/mapfiles/place_api/icons/v2/worship_jewish_pinlet", "name": "Emek Refaim (Ya'el) Synagogue", "photos": [{"height": 3456, "html_attributions": ["<a href=\"https://maps.google.com/maps/contrib/113058867138400994116\">Menachem Fooksman</a>"], "photo_reference": "AeJbb3fO_HD0_Pd1yQUOZSV-JERFypKyWNUXJbZTGmRI2yqB3P05TeHHSeD5oc0Su3-CIncS4DgV-TYM6b4OIUa4F0ZRC6QnnYTgYw5HA0Kw_JYDKxDnuHDSW9sWGCKl0jelpfphvVfhnRTiorKPKjGAjyGThy88Xy2DLxiXRzhSRwrEAxr7", "width": 4608}], "place_id": "ChIJ-9sX3IEpAxURE4170sNBVm0", "plus_code": {"compound_code": "Q66C+89 Jerusalem, Israel", "global_code": "8G3QQ66C+89"}, "rating": 3.9, "reference": "ChIJ-9sX3IEpAxURE4170sNBVm0", "scope": "GOOGLE", "types": ["synagogue", "place_of_worship", "point_of_interest", "establishment"], "user_ratings_total": 18, "vicinity": "Ya'el St 4, Jerusalem"}, {"business_status": "OPERATIONAL", "geometry": {"location": {"lat": 31.7717543, "lng": 35.2139072}, "viewport": {"northeast": {"lat": 31.77312302989272, "lng": 35.21518752989272}, "southwest": {"lat": 31.77042337010728, "lng": 35.21248787010727}}}, "icon": "https://maps.gstatic.com/mapfiles/place_api/icons/v1/png_71/worship_jewish-71.png", "icon_background_color": "#7B9EB0", "icon_mask_base_uri": "https://maps.gstatic.com/mapfiles/place_api/icons/v2/worship_jewish_pinlet", "name": "Ohel Yosef Synagogue", "photos": [{"height": 3024, "html_attributions": ["<a href=\"https://maps.google.com/maps/contrib/117296090513344053648\">eli adler</a>"], "photo_reference": "AeJbb3dsa7jkqaqkdE4qnpFa0hOpxRJjdEockm1YMDuFtyjqSJb9MtlL4VxwZeEt1FSoV2agqlHEUISCG7ll82wXJr3RbYer-bglK7imnsPseoLyYpzQOD6r6vi6MyMoJawTfH4kE0RnHYCP345wc0dUpqGZH4msktq1ncJV9uXnNtgIGFnf", "width": 4032}], "place_id": "ChIJS_zBNNbXAhURBeLhJZ8RSAw", "plus_code": {"compound_code": "Q6C7+PH Jerusalem, Israel", "global_code": "8G3QQ6C7+PH"}, "rating": 4.9, "reference": "ChIJS_zBNNbXAhURBeLhJZ8RSAw", "scope": "GOOGLE", "types": ["synagogue", "place_of_worship", "point_of_interest", "establishment"], "user_ratings_total": 11, "vicinity": "Jerusalem"}], "status": "OK"}
