{"html_attributions": [], "results": [{"business_status": "OPERATIONAL", "geometry": {"location": {"lat": 33.2282717, "lng": 35.6454259}, "viewport": {"northeast": {"lat": 33.22969057989272, "lng": 35.64684637989271}, "southwest": {"lat": 33.22699092010728, "lng": 35.64414672010727}}}, "icon": "https://maps.gstatic.com/mapfiles/place_api/icons/v1/png_71/worship_jewish-71.png", "icon_background_color": "#7B9EB0", "icon_mask_base_uri": "https://maps.gstatic.com/mapfiles/place_api/icons/v2/worship_jewish_pinlet", "name": "City Gate Synagogue", "photos": [{"height": 3000, "html_attributions": ["<a href=\"https://maps.google.com/maps/contrib/106649372609287883469\">\u05d9\u05e2\u05e7\u05d1 \u05dc\u05d9\u05d1\u05de\u05df</a>"], "photo_reference": "AeJbb3f6oZp4H4dmihkxM5OU2-MMqoW7kx29U5grITolfHio-y8VpQts8CgZJMNGSYvJ-UXxArme9TZ7Syo6StqK9ZgJvu9DSzQ-UI_nHWzB7NXB-rY0FOK2p1oswYBUSM3-fRywqmj8A4CGQpwHVQrpmeuZnv27xEUWDM4D6XtA5X7X_ye3", "width": 4000}], "place_id": "ChIJo45fgXC8HhURHXSfG7xrMdM", "plus_code": {"compound_code": "6JHW+85 She'ar Yashuv, Israel", "global_code": "8G5Q6JHW+85"}, "rating": 4.4, "reference": "ChIJo45fgXC8HhURHXSfG7xrMdM", "scope": "GOOGLE", "types": ["synagogue", "place_of_worship", "point_of_interest", "establishment"], "user_ratings_total": 22, "vicinity": "She'ar Yashuv"}, {"business_status": "OPERATIONAL", "geometry": {"location": {"lat": 33.26202, "lng": 35.740574}, "viewport": {"northeast": {"lat": 33.26344137989272, "lng": 35.74219747989272}, "southwest": {"lat": 33.26074172010728, "lng": 35.73949782010727}}}, "icon": "https://maps.gstatic.com/mapfiles/place_api/icons/v1/png_71/worship_jewish-71.png", "icon_background_color": "#7B9EB0", "icon_mask_base_uri": "https://maps.gstatic.com/mapfiles/place_api/icons/v2/worship_jewish_pinlet", "name": "\u05d1\u05d9\u05ea \u05d4\u05db\u05e0\u05e1\u05ea \u05d0\u05d1\u05e8\u05d4\u05dd \u05d0\u05d1\u05d9\u05e0\u05d5 \u05e0\u05d5\u05d5\u05d4 \u05d0\u05d8\u05d9\"\u05d1", "photos": [{"height": 3096, "html_attributions": ["<a href=\"https://maps.google.com/maps/contrib/108970200618414005147\">Yogev azulay</a>"], "photo_reference": "AeJbb3eG7AHP6XuPWGQuPnkR6rqclBhgmnOhjsCB6-TtuVo9ydoa1H7L3RwJ2eEwOokbmDseOVr3nGy7I928AKTbGSPjBaZGW90xvUdCsOVMfnZOIvN7eac4KDMWFEBfUUDU5QTVU_oU0qaQbWmOqADPLnqMBytm6VlVXHRXrmG2lCCeE6MO", "width": 4128}], "place_id": "ChIJYaTQ26W5HhURh4SEg4Fl0dE", "plus_code": {"compound_code": "7P6R+R6 Neve Ativ", "global_code": "8G5Q7P6R+R6"}, "rating": 1, "reference": "ChIJYaTQ26W5HhURh4SEg4Fl0dE", "scope": "GOOGLE", "types": ["synagogue", "place_of_worship", "point_of_interest", "establishment"], "user_ratings_total": 1, "vicinity": "\u0646\u064a\u0641\u064a \u0623\u0637\u064a\u0641"}, {"business_status": "OPERATIONAL", "geometry": {"location": {"lat": 33.2844675, "lng": 35.7042361}, "viewport": {"northeast": {"lat": 33.28556604999999, "lng": 35.70521997989272}, "southwest": {"lat": 33.28117185000001, "lng": 35.70252032010727}}}, "icon": "https://maps.gstatic.com/mapfiles/place_api/icons/v1/png_71/worship_jewish-71.png", "icon_background_color": "#7B9EB0", "icon_mask_base_uri": "https://maps.gstatic.com/mapfiles/place_api/icons/v2/worship_jewish_pinlet", "name": "Brett Ben Hpetram", "photos": [{"height": 3120, "html_attributions": ["<a href=\"https://maps.google.com/maps/contrib/116042645693286228928\">gil Kal</a>"], "photo_reference": "AeJbb3eOHVx1rpadVck8oKtAnw_vuPbhoRK3a1JP-JV6MoAECHr_gCQd3QRB3qUb0Xx9mHQfR9mFlojqUMXSiwo4eKTr4g1kD9Ca9S1J8hJPFWVS-n3iOzzkeEXNHntA1w8L4grJeyW_kNfHgM7LuL2qS-6c-G9a6fQkPcg_NL8VlgEw9xiF", "width": 4160}], "place_id": "ChIJ5adTyFa4HhURDllAs5jHMtY", "rating": 4.8, "reference": "ChIJ5adTyFa4HhURDllAs5jHMtY", "scope": "GOOGLE", "types": ["synagogue", "place_of_worship", "point_of_interest", "establishment"], "user_ratings_total": 14}], "status": "OK"}
