{"html_attributions": [], "next_page_token": "AeJbb3eEMzyinHLOAE1htfbT5buDILkYNSR8aDk1r5hhHfmA2A13mgWBPw6WLZmBXhkrp0oH-FiJ61GxkxXbgvJd3hkQC3-UFUxm777O95WVvyBh849NP2f_ZPsOBi3gSJ_ifgEFNiZD6sJCm8Lnx1cdaGTPDb-wWRqR0d3EpU-5xwtIk7XF16yUlDhQANaVt9Ef5dFfwvxtWhz9UCnSdaown4ipWa3jAmxEXs7BpbDOTWIsjK-MTpmmvPyq9PxD9m94s0j7p-aa5f-OVQEWYrYJ-Gg6fdxY2wqGDXjBNyHK7RjiJ65SR2MKJwWaf6TY0rz0k61hIGJJwttMmtDzus-AcY-X2-KfpsdUbUOjZZ2cvpT1B0iYTq5rHN0RHw_8frk09jRpuIMc26QoTH2vS8OKzDyZBTH9vsoyz6ti7_sx-Xzds0YMh5ce-1Kn5nZPRHpHUsu-_yzcjQ", "results": [{"business_status": "OPERATIONAL", "geometry": {"location": {"lat": 31.740777, "lng": 34.987728}, "viewport": {"northeast": {"lat": 31.74214722989271, "lng": 34.98913617989272}, "southwest": {"lat": 31.73944757010727, "lng": 34.98643652010728}}}, "icon": "https://maps.gstatic.com/mapfiles/place_api/icons/v1/png_71/worship_jewish-71.png", "icon_background_color": "#7B9EB0", "icon_mask_base_uri": "https://maps.gstatic.com/mapfiles/place_api/icons/v2/worship_jewish_pinlet", "name": "Ohel Yonah Menachem Synagogue", "photos": [{"height": 1080, "html_attributions": ["<a href=\"https://maps.google.com/maps/contrib/103281257206661363751\">Bruce Dov Krulwich</a>"], "photo_reference": "AeJbb3fqfKqdcyuO75Vbc_Y0hlND9YF6OBU8kvLlrfM5-fcHAx7a02fm_Jq4pR25Lf7GNijuq7gLz0W8FAw2sAtOfALVuYCfvq9d0oYqei7i8mKRVg3t7svUQkzq-jpMti636eNttlc3dCjeHaxzQtpIMp1laLR2vE98iHwVHV-Mc2GzB_cU", "width": 1920}], "place_id": "ChIJuzZlQGTEAhUR91IlC6G0TM8", "plus_code": {"compound_code": "PXRQ+83 Bet Shemesh", "global_code": "8G3PPXRQ+83"}, "rating": 4.4, "reference": "ChIJuzZlQGTEAhUR91IlC6G0TM8", "scope": "GOOGLE", "types": ["synagogue", "place_of_worship", "point_of_interest", "establishment"], "user_ratings_total": 76, "vicinity": "Bet Shemesh"}, {"business_status": "OPERATIONAL", "geometry": {"location": {"lat": 31.748046, "lng": 34.991005}, "viewport": {"northeast": {"lat": 31.74932122989272, "lng": 34.99237692989273}, "southwest": {"lat": 31.74662157010728, "lng": 34.98967727010729}}}, "icon": "https://maps.gstatic.com/mapfiles/place_api/icons/v1/png_71/worship_jewish-71.png", "icon_background_color": "#7B9EB0", "icon_mask_base_uri": "https://maps.gstatic.com/mapfiles/place_api/icons/v2/worship_jewish_pinlet", "name": "Yonatan Ben Uziel Synagogue", "place_id": "ChIJtd55W17EAhURP4dFdI8lKN4", "plus_code": {"compound_code": "PXXR+6C Bet Shemesh", "global_code": "8G3PPXXR+6C"}, "rating": 3, "reference": "ChIJtd55W17EAhURP4dFdI8lKN4", "scope": "GOOGLE", "types": ["synagogue", "place_of_worship", "point_of_interest", "establishment"], "user_ratings_total": 1, "vicinity": "Bet Shemesh"}, {"business_status": "OPERATIONAL", "geometry": {"location": {"lat": 31.752974, "lng": 34.990058}, "viewport": {"northeast": {"lat": 31.75438402989272, "lng": 34.99143662989272}, "southwest": {"lat": 31.75168437010728, "lng": 34.98873697010728}}}, "icon": "https://maps.gstatic.com/mapfiles/place_api/icons/v1/png_71/worship_jewish-71.png", "icon_background_color": "#7B9EB0", "icon_mask_base_uri": "https://maps.gstatic.com/mapfiles/place_api/icons/v2/worship_jewish_pinlet", "name": "Baba Sali synagogue", "place_id": "ChIJR1kXb1nEAhURvjnsoFLZZF4", "plus_code": {"compound_code": "QX3R+52 Bet Shemesh", "global_code": "8G3PQX3R+52"}, "rating": 5, "reference": "ChIJR1kXb1nEAhURvjnsoFLZZF4", "scope": "GOOGLE", "types": ["synagogue", "place_of_worship", "point_of_interest", "establishment"], "user_ratings_total": 2, "vicinity": "Bet Shemesh"}, {"business_status": "OPERATIONAL", "geometry": {"location": {"lat": 31.7397907, "lng": 34.9927316}, "viewport": {"northeast": {"lat": 31.74111702989272, "lng": 34.99400032989272}, "southwest": {"lat": 31.73841737010727, "lng": 34.99130067010728}}}, "icon": "https://maps.gstatic.com/mapfiles/place_api/icons/v1/png_71/worship_jewish-71.png", "icon_background_color": "#7B9EB0", "icon_mask_base_uri": "https://maps.gstatic.com/mapfiles/place_api/icons/v2/worship_jewish_pinlet", "name": "Heichal Avraham Bnei HaYeshivos Synagogue", "opening_hours": {"open_now": true}, "photos": [{"height": 1516, "html_attributions": ["<a href=\"https://maps.google.com/maps/contrib/109343642251137190385\">A Google User</a>"], "photo_reference": "AeJbb3fEd-1GPGmb83LoTfZITFlM7iG9VKBqY0Ccxm746XjgjHOtBtu-DZdxv29DbwqavvyD8KgqC1SS204slSIpd8ngnYpNa3NZzpaERrCHsLApkhDEgYUvq2l9bSQ7Z_jpx9rwEhx0y9gtGbFsKBe_DdAxmNlgMRnS7ny6DWlXzikznh9U", "width": 1170}], "place_id": "ChIJ73ZgOmLEAhURDpCUwhSGr-8", "plus_code": {"compound_code": "PXQV+W3 Bet Shemesh", "global_code": "8G3PPXQV+W3"}, "rating": 4.6, "reference": "ChIJ73ZgOmLEAhURDpCUwhSGr-8", "scope": "GOOGLE", "types": ["synagogue", "place_of_worship", "point_of_interest", "establishment"], "user_ratings_total": 29, "vicinity": "Bet Shemesh"}, {"business_status": "OPERATIONAL", "geometry": {"location": {"lat": 31.750914, "lng": 34.988813}, "viewport": {"northeast": {"lat": 31.75225357989272, "lng": 34.99016222989273}, "southwest": {"lat": 31.74955392010727, "lng": 34.98746257010728}}}, "icon": "https://maps.gstatic.com/mapfiles/place_api/icons/v1/png_71/worship_jewish-71.png", "icon_background_color": "#7B9EB0", "icon_mask_base_uri": "https://maps.gstatic.com/mapfiles/place_api/icons/v2/worship_jewish_pinlet", "name": "Shalom Synagogue", "place_id": "ChIJZ1ufG1zEAhUR15RHM2Xe3Do", "plus_code": {"compound_code": "QX2Q+9G Bet Shemesh", "global_code": "8G3PQX2Q+9G"}, "rating": 4.8, "reference": "ChIJZ1ufG1zEAhUR15RHM2Xe3Do", "scope": "GOOGLE", "types": ["synagogue", "place_of_worship", "point_of_interest", "establishment"], "user_ratings_total": 4, "vicinity": "Bet Shemesh"}, {"business_status": "OPERATIONAL", "geometry": {"location": {"lat": 31.7397124, "lng": 34.9863754}, "viewport": {"northeast": {"lat": 31.74100567989272, "lng": 34.98775132989272}, "southwest": {"lat": 31.73830602010727, "lng": 34.98505167010727}}}, "icon": "https://maps.gstatic.com/mapfiles/place_api/icons/v1/png_71/worship_jewish-71.png", "icon_background_color": "#7B9EB0", "icon_mask_base_uri": "https://maps.gstatic.com/mapfiles/place_api/icons/v2/worship_jewish_pinlet", "name": "Netzach Menashe", "photos": [{"height": 2160, "html_attributions": ["<a href=\"https://maps.google.com/maps/contrib/100220695266240461504\">\u05d9\u05d4\u05d5\u05d3\u05d4 \u05d2\u05d5\u05d8\u05dc\u05d9\u05d1</a>"], "photo_reference": "AeJbb3ePoy2G1CrlZ_9rxCecwvV6NsPfSyXyQHaRabNFQT6pXoMewDe6XQ51ydRDPIXch_XyQyivqS7kKroTqn6J9lRX3PwO0jyqfiSOHmrD2BD3SD51XlLJeKvpdfOcF7jnOAYeYbRtKEqne5R2XiTRKDaWdTsHuBojHNqEhC1ydro7BDFS", "width": 3600}], "place_id": "ChIJF2uOAWXEAhURIozkdHu9AoA", "plus_code": {"compound_code": "PXQP+VG Bet Shemesh", "global_code": "8G3PPXQP+VG"}, "rating": 4.6, "reference": "ChIJF2uOAWXEAhURIozkdHu9AoA", "scope": "GOOGLE", "types": ["synagogue", "place_of_worship", "point_of_interest", "establishment"], "user_ratings_total": 65, "vicinity": "Re'uven St 18, Bet Shemesh"}, {"business_status": "OPERATIONAL", "geometry": {"location": {"lat": 31.7556149, "lng": 34.985719}, "viewport": {"northeast": {"lat": 31.75687527989272, "lng": 34.98718907989272}, "southwest": {"lat": 31.75417562010727, "lng": 34.98448942010727}}}, "icon": "https://maps.gstatic.com/mapfiles/place_api/icons/v1/png_71/worship_jewish-71.png", "icon_background_color": "#7B9EB0", "icon_mask_base_uri": "https://maps.gstatic.com/mapfiles/place_api/icons/v2/worship_jewish_pinlet", "name": "\u05d1\u05d9\u05ea \u05db\u05e0\u05e1\u05ea \u05e1\u05e4\u05e8\u05d3\u05d9", "place_id": "ChIJCZk-JTLFAhURchHFxtUZ500", "plus_code": {"compound_code": "QX4P+77 Bet Shemesh", "global_code": "8G3PQX4P+77"}, "rating": 4, "reference": "ChIJCZk-JTLFAhURchHFxtUZ500", "scope": "GOOGLE", "types": ["synagogue", "place_of_worship", "point_of_interest", "establishment"], "user_ratings_total": 1, "vicinity": "Bet Shemesh"}, {"business_status": "OPERATIONAL", "geometry": {"location": {"lat": 31.7429284, "lng": 34.9795853}, "viewport": {"northeast": {"lat": 31.74427177989272, "lng": 34.98096242989272}, "southwest": {"lat": 31.74157212010727, "lng": 34.97826277010728}}}, "icon": "https://maps.gstatic.com/mapfiles/place_api/icons/v1/png_71/worship_jewish-71.png", "icon_background_color": "#7B9EB0", "icon_mask_base_uri": "https://maps.gstatic.com/mapfiles/place_api/icons/v2/worship_jewish_pinlet", "name": "\u05d1\u05d9\u05ea \u05db\u05e0\u05e1\u05ea \u05d1\u05d9\u05ea \u05d9\u05d5\u05e1\u05e3", "photos": [{"height": 1080, "html_attributions": ["<a href=\"https://maps.google.com/maps/contrib/103281257206661363751\">Bruce Dov Krulwich</a>"], "photo_reference": "AeJbb3dqzoaqDkukMORxaCs4UjKHd561vd98g2UN5Eo4QDskzleYNzZk35sP7EFSQICsMUJ8P_7vX81FxuPo--rTcSg_7rdHHqMqORCKfbqDMVAnTgpabCh-uWqf6sPZ2P479xuVEFbTVnOEk081QmEbgDC3yxrCgw6xWx4QO3LyrGrI5OCY", "width": 1920}], "place_id": "ChIJT9Fwk27EAhURzUXt9Xf0DUk", "plus_code": {"compound_code": "PXVH+5R Bet Shemesh", "global_code": "8G3PPXVH+5R"}, "rating": 5, "reference": "ChIJT9Fwk27EAhURzUXt9Xf0DUk", "scope": "GOOGLE", "types": ["synagogue", "place_of_worship", "point_of_interest", "establishment"], "user_ratings_total": 2, "vicinity": "Bet Shemesh"}, {"business_status": "OPERATIONAL", "geometry": {"location": {"lat": 31.741887, "lng": 34.99166659999999}, "viewport": {"northeast": {"lat": 31.74318622989272, "lng": 34.99303607989273}, "southwest": {"lat": 31.74048657010728, "lng": 34.99033642010728}}}, "icon": "https://maps.gstatic.com/mapfiles/place_api/icons/v1/png_71/worship_jewish-71.png", "icon_background_color": "#7B9EB0", "icon_mask_base_uri": "https://maps.gstatic.com/mapfiles/place_api/icons/v2/worship_jewish_pinlet", "name": "\u05d1\u05d9\u05ea \u05d4\u05db\u05e0\u05e1\u05ea \u05d0\u05d7\u05d3\u05d5\u05ea \u05d9\u05e9\u05e8\u05d0\u05dc", "photos": [{"height": 3072, "html_attributions": ["<a href=\"https://maps.google.com/maps/contrib/103792373347757230724\">\u05d7\u05df \u05e9\u05d1\u05ea\u05d0\u05d9</a>"], "photo_reference": "AeJbb3evyXfADhzkoqAtPijflS_KfdOlTL9KzbXGsN1mwsBPMsxi1KE8Fzra4gc5ocuhcUrDCRbX-tRPrgzAChAj4IzEif_D19-pwa7Cw96JnkrAB2vhqnRP45j9e_DbbXqu2gJPA3bGiDQLKROlekGUTDEXV7e5T7njC7fMBXQs3zf7c5Vh", "width": 4096}], "place_id": "ChIJz17pc2HEAhURltvhJidHoII", "plus_code": {"compound_code": "PXRR+QM Bet Shemesh", "global_code": "8G3PPXRR+QM"}, "rating": 4.6, "reference": "ChIJz17pc2HEAhURltvhJidHoII", "scope": "GOOGLE", "types": ["synagogue", "place_of_worship", "point_of_interest", "establishment"], "user_ratings_total": 15, "vicinity": "Bet Shemesh"}, {"business_status": "OPERATIONAL", "geometry": {"location": {"lat": 31.74702, "lng": 34.98501}, "viewport": {"northeast": {"lat": 31.74840177989272, "lng": 34.98637882989271}, "southwest": {"lat": 31.74570212010728, "lng": 34.98367917010727}}}, "icon": "https://maps.gstatic.com/mapfiles/place_api/icons/v1/png_71/worship_jewish-71.png", "icon_background_color": "#7B9EB0", "icon_mask_base_uri": "https://maps.gstatic.com/mapfiles/place_api/icons/v2/worship_jewish_pinlet", "name": "Kibbutz Galuyot Synagogue", "photos": [{"height": 640, "html_attributions": ["<a href=\"https://maps.google.com/maps/contrib/114575676049529713351\">\u05d0\u05d4\u05e8\u05d5\u05df \u05d7\u05d9\u05d9\u05d0\u05d1</a>"], "photo_reference": "AeJbb3fcjNlSTE-bNWtGlu5q8n1ROFiRe30raFwRCxL1gIz5ghMwotoMe-ik9qulFQhMcS13rlZCXlRFT_77GsxnSkCzaVbhomtf9XprXBkP5qP__REYjl8yd2K4cLRyyDidoCsBcoY5MGEsTSmUyR5qreJEY5hrjaF0UxZEcsvIt7Hoi50w", "width": 640}], "place_id": "ChIJQQSX7GfEAhURtfotmrZENVI", "plus_code": {"compound_code": "PXWP+R2 Bet Shemesh", "global_code": "8G3PPXWP+R2"}, "rating": 4.9, "reference": "ChIJQQSX7GfEAhURtfotmrZENVI", "scope": "GOOGLE", "types": ["synagogue", "place_of_worship", "point_of_interest", "establishment"], "user_ratings_total": 9, "vicinity": "Bet Shemesh"}, {"business_status": "OPERATIONAL", "geometry": {"location": {"lat": 31.75038, "lng": 34.984162}, "viewport": {"northeast": {"lat": 31.75175007989272, "lng": 34.98547987989272}, "southwest": {"lat": 31.74905042010728, "lng": 34.98278022010728}}}, "icon": "https://maps.gstatic.com/mapfiles/place_api/icons/v1/png_71/worship_jewish-71.png", "icon_background_color": "#7B9EB0", "icon_mask_base_uri": "https://maps.gstatic.com/mapfiles/place_api/icons/v2/worship_jewish_pinlet", "name": "Be'er Avraham Synagogue", "place_id": "ChIJ5QI2KV3EAhURaluh_f9yRew", "plus_code": {"compound_code": "QX2M+5M Bet Shemesh", "global_code": "8G3PQX2M+5M"}, "rating": 4.8, "reference": "ChIJ5QI2KV3EAhURaluh_f9yRew", "scope": "GOOGLE", "types": ["synagogue", "place_of_worship", "point_of_interest", "establishment"], "user_ratings_total": 4, "vicinity": "Bet Shemesh"}, {"business_status": "OPERATIONAL", "geometry": {"location": {"lat": 31.7414021, "lng": 34.9954462}, "viewport": {"northeast": {"lat": 31.74273327989271, "lng": 34.99673492989272}, "southwest": {"lat": 31.74003362010727, "lng": 34.99403527010728}}}, "icon": "https://maps.gstatic.com/mapfiles/place_api/icons/v1/png_71/worship_jewish-71.png", "icon_background_color": "#7B9EB0", "icon_mask_base_uri": "https://maps.gstatic.com/mapfiles/place_api/icons/v2/worship_jewish_pinlet", "name": "The synagogue east of Sun", "opening_hours": {"open_now": true}, "photos": [{"height": 968, "html_attributions": ["<a href=\"https://maps.google.com/maps/contrib/111021335590193767746\">\u05e0\u05ea\u05d9 \u05d0\u05d1\u05d5\u05d8\u05d1\u05d5\u05dc</a>"], "photo_reference": "AeJbb3d9IYQYiajB4I9p95Az9F-1SEkbAsYiN-IgdigM3dz41LaYbjipI5oriaCVIfHG3sGJ1wpQbVZe9e8uYos1CGnCIPQt8oyqKuoNscttrb9Inb1DgzBDqZTSrYJnBeWb-T3nUvfJNt3ybceSi31TicfONHGaBNQtfIbQz4aSOGP5a4SC", "width": 1296}], "place_id": "ChIJgz4ocIrEAhURaOYB7i0iKoo", "plus_code": {"compound_code": "PXRW+H5 Bet Shemesh", "global_code": "8G3PPXRW+H5"}, "rating": 4.5, "reference": "ChIJgz4ocIrEAhURaOYB7i0iKoo", "scope": "GOOGLE", "types": ["synagogue", "place_of_worship", "point_of_interest", "establishment"], "user_ratings_total": 90, "vicinity": "Sfat Emet St 5, Bet Shemesh"}, {"business_status": "OPERATIONAL", "geometry": {"location": {"lat": 31.739807, "lng": 34.9834906}, "viewport": {"northeast": {"lat": 31.74111367989272, "lng": 34.98484042989272}, "southwest": {"lat": 31.73841402010728, "lng": 34.98214077010727}}}, "icon": "https://maps.gstatic.com/mapfiles/place_api/icons/v1/png_71/worship_jewish-71.png", "icon_background_color": "#7B9EB0", "icon_mask_base_uri": "https://maps.gstatic.com/mapfiles/place_api/icons/v2/worship_jewish_pinlet", "name": "Ateret Shalom Central Synagogue", "photos": [{"height": 1920, "html_attributions": ["<a href=\"https://maps.google.com/maps/contrib/103281257206661363751\">Bruce Dov Krulwich</a>"], "photo_reference": "AeJbb3cms-sYsOaViQgkTSi01F_x2AI26muDoA1HkcZGarNx8_OQB-Q6QXobyU-XExHbryPNJ7yx0OOAH0YlCSYkWG48RglcPAn8oyCWDSfhgcAaz1ZIr-WoxW-Z6CFbHmW80SG1CpbjqAxWLu3Pzti5Mxr1kOkqWh-1YQXfhXQFp-RyLlI-", "width": 1080}], "place_id": "ChIJZX9qim_EAhURpEno9hVfKB8", "plus_code": {"compound_code": "PXQM+W9 Bet Shemesh", "global_code": "8G3PPXQM+W9"}, "rating": 4.7, "reference": "ChIJZX9qim_EAhURpEno9hVfKB8", "scope": "GOOGLE", "types": ["synagogue", "place_of_worship", "point_of_interest", "establishment"], "user_ratings_total": 18, "vicinity": "Bet Shemesh"}, {"business_status": "OPERATIONAL", "geometry": {"location": {"lat": 31.74254719999999, "lng": 34.9853611}, "viewport": {"northeast": {"lat": 31.74399997989272, "lng": 34.98665812989272}, "southwest": {"lat": 31.74130032010728, "lng": 34.98395847010728}}}, "icon": "https://maps.gstatic.com/mapfiles/place_api/icons/v1/png_71/worship_jewish-71.png", "icon_background_color": "#7B9EB0", "icon_mask_base_uri": "https://maps.gstatic.com/mapfiles/place_api/icons/v2/worship_jewish_pinlet", "name": "Neve Tzedek Synagogue", "place_id": "ChIJNcEF3GXEAhURS7sPq1N8J6A", "plus_code": {"compound_code": "PXVP+24 Bet Shemesh", "global_code": "8G3PPXVP+24"}, "rating": 4.6, "reference": "ChIJNcEF3GXEAhURS7sPq1N8J6A", "scope": "GOOGLE", "types": ["synagogue", "place_of_worship", "point_of_interest", "establishment"], "user_ratings_total": 13, "vicinity": "Bet Shemesh"}, {"business_status": "OPERATIONAL", "geometry": {"location": {"lat": 31.741932, "lng": 34.979535}, "viewport": {"northeast": {"lat": 31.74327667989273, "lng": 34.98083647989272}, "southwest": {"lat": 31.74057702010728, "lng": 34.97813682010727}}}, "icon": "https://maps.gstatic.com/mapfiles/place_api/icons/v1/png_71/worship_jewish-71.png", "icon_background_color": "#7B9EB0", "icon_mask_base_uri": "https://maps.gstatic.com/mapfiles/place_api/icons/v2/worship_jewish_pinlet", "name": "The synagogue was Abraham", "photos": [{"height": 1080, "html_attributions": ["<a href=\"https://maps.google.com/maps/contrib/103281257206661363751\">Bruce Dov Krulwich</a>"], "photo_reference": "AeJbb3eDgfxLF88EQQ5y09xHW-H5ToNeYtlTIH-eLxH7rBtASgrILhvK77du0SgXFYCp2rfqaVmbJRNe7AiSVGhS5-ZgG1gtLnUWHrLqig3CNYHg_MX1YypghdBzUPDUkKvPFwD4-MzSFTFVpKMjitIj-45QQ2a8F9jQRWaayDek_rJjS547", "width": 1920}], "place_id": "ChIJ-YWRYG7EAhURv5-9d12oIuc", "plus_code": {"compound_code": "PXRH+QR Bet Shemesh", "global_code": "8G3PPXRH+QR"}, "rating": 4.4, "reference": "ChIJ-YWRYG7EAhURv5-9d12oIuc", "scope": "GOOGLE", "types": ["synagogue", "place_of_worship", "point_of_interest", "establishment"], "user_ratings_total": 7, "vicinity": "Bet Shemesh"}, {"business_status": "OPERATIONAL", "geometry": {"location": {"lat": 31.737885, "lng": 34.9946758}, "viewport": {"northeast": {"lat": 31.73910942989272, "lng": 34.99598962989272}, "southwest": {"lat": 31.73640977010728, "lng": 34.99328997010728}}}, "icon": "https://maps.gstatic.com/mapfiles/place_api/icons/v1/png_71/worship_jewish-71.png", "icon_background_color": "#7B9EB0", "icon_mask_base_uri": "https://maps.gstatic.com/mapfiles/place_api/icons/v2/worship_jewish_pinlet", "name": "Biala Synagogue", "opening_hours": {"open_now": true}, "photos": [{"height": 576, "html_attributions": ["<a href=\"https://maps.google.com/maps/contrib/100262636148985314045\">A Google User</a>"], "photo_reference": "AeJbb3dpk4x-YnID5297eLsndRoIuUKWT-SKmPothbGS0igojv6OdjEtLI3pMjsrISzFP8MDlmHt7KS5OihJSsSfDi4ZVF0E6912NcProLwFs9C1ykCIj_Tdj3rnH0S14aaFSp7EyjADXZhAbLKd4clBzdbTRele-AT7WPPY4Fv6S4DKnckI", "width": 1016}], "place_id": "ChIJXd9meGLEAhURnk6Dk4P86fE", "plus_code": {"compound_code": "PXQV+5V Bet Shemesh", "global_code": "8G3PPXQV+5V"}, "rating": 4.2, "reference": "ChIJXd9meGLEAhURnk6Dk4P86fE", "scope": "GOOGLE", "types": ["synagogue", "place_of_worship", "point_of_interest", "establishment"], "user_ratings_total": 10, "vicinity": "Hazon Ish St 37, Bet Shemesh"}, {"business_status": "OPERATIONAL", "geometry": {"location": {"lat": 31.7477717, "lng": 34.9816073}, "viewport": {"northeast": {"lat": 31.74910292989272, "lng": 34.98301837989272}, "southwest": {"lat": 31.74640327010728, "lng": 34.98031872010728}}}, "icon": "https://maps.gstatic.com/mapfiles/place_api/icons/v1/png_71/worship_jewish-71.png", "icon_background_color": "#7B9EB0", "icon_mask_base_uri": "https://maps.gstatic.com/mapfiles/place_api/icons/v2/worship_jewish_pinlet", "name": "\u05d1\u05d9\u05ea \u05db\u05e0\u05e1\u05ea \u05ea\u05e4\u05d0\u05e8\u05ea \u05d9\u05e9\u05e8\u05d0\u05dc", "place_id": "ChIJoTYClu7FAhURZ7IP7xF9Isc", "plus_code": {"compound_code": "PXXJ+4J Bet Shemesh", "global_code": "8G3PPXXJ+4J"}, "rating": 0, "reference": "ChIJoTYClu7FAhURZ7IP7xF9Isc", "scope": "GOOGLE", "types": ["synagogue", "place_of_worship", "point_of_interest", "establishment"], "user_ratings_total": 0, "vicinity": "Simtat HaAlon, Bet Shemesh"}, {"business_status": "OPERATIONAL", "geometry": {"location": {"lat": 31.7382063, "lng": 34.9941497}, "viewport": {"northeast": {"lat": 31.73934157989272, "lng": 34.99541802989273}, "southwest": {"lat": 31.73664192010727, "lng": 34.99271837010728}}}, "icon": "https://maps.gstatic.com/mapfiles/place_api/icons/v1/png_71/worship_jewish-71.png", "icon_background_color": "#7B9EB0", "icon_mask_base_uri": "https://maps.gstatic.com/mapfiles/place_api/icons/v2/worship_jewish_pinlet", "name": "\u05d1\u05d9\u05ea \u05d4\u05db\u05e0\u05e1\u05ea \u05d1\u05e8\u05e1\u05dc\u05d1", "photos": [{"height": 3888, "html_attributions": ["<a href=\"https://maps.google.com/maps/contrib/108235774845127461738\">A Google User</a>"], "photo_reference": "AeJbb3fPiVBkno0iM8Zv1PItxb-Ku8rN5AvxkkODHmTJxzhckfm4oG0JqGB_zK5kO5fblF9YEp_0RlB8UusIkwUX-JdBfdGD5C_MgUwO-3hm8zdSpECPhVZkTOFQyLokNgmfayMTLrW4SlvqW-06QuJfhMsQFxT0VF1B5VWMFecrSNBOVDdE", "width": 5184}], "place_id": "ChIJn-Jmp5TFAhURhw57aXgFH5k", "plus_code": {"compound_code": "PXQV+7M Bet Shemesh", "global_code": "8G3PPXQV+7M"}, "rating": 0, "reference": "ChIJn-Jmp5TFAhURhw57aXgFH5k", "scope": "GOOGLE", "types": ["synagogue", "place_of_worship", "point_of_interest", "establishment"], "user_ratings_total": 0, "vicinity": "Hazon Ish St 35, Bet Shemesh"}, {"business_status": "OPERATIONAL", "geometry": {"location": {"lat": 31.7390141, "lng": 34.9950149}, "viewport": {"northeast": {"lat": 31.74035837989272, "lng": 34.99641197989272}, "southwest": {"lat": 31.73765872010728, "lng": 34.99371232010728}}}, "icon": "https://maps.gstatic.com/mapfiles/place_api/icons/v1/png_71/worship_jewish-71.png", "icon_background_color": "#7B9EB0", "icon_mask_base_uri": "https://maps.gstatic.com/mapfiles/place_api/icons/v2/worship_jewish_pinlet", "name": "\u05d1\u05d9\u05ea \u05db\u05e0\u05e1\u05ea - \u05d2\u05d5\u05e8 \u05ea\u05d5\u05e8\u05d4", "photos": [{"height": 4032, "html_attributions": ["<a href=\"https://maps.google.com/maps/contrib/109343642251137190385\">A Google User</a>"], "photo_reference": "AeJbb3e9I6Ha_5HJ-S1Tgek0I8IlLno-t3MYfu4LzNqtUruEdCRytVHL8RU15vAegb_plCMTVjyJ2FGvcFzVMJD-1O6YHVrATKvP_F34MawcOBN4z5h4BE1tkUTp3PxtdRoComADYFW1JXMU8WQPxVSJl99iyDD6HG-MAlNtbdBSOswpDL8P", "width": 3024}], "place_id": "ChIJj30zIEjFAhURFW_egX2nIkI", "plus_code": {"compound_code": "PXQV+JX Bet Shemesh", "global_code": "8G3PPXQV+JX"}, "rating": 3.7, "reference": "ChIJj30zIEjFAhURFW_egX2nIkI", "scope": "GOOGLE", "types": ["synagogue", "place_of_worship", "point_of_interest", "establishment"], "user_ratings_total": 6, "vicinity": "Or Same'ach St 15, Bet Shemesh"}, {"business_status": "OPERATIONAL", "geometry": {"location": {"lat": 31.7508905, "lng": 34.9912355}, "viewport": {"northeast": {"lat": 31.75231997989272, "lng": 34.99262632989272}, "southwest": {"lat": 31.74962032010728, "lng": 34.98992667010728}}}, "icon": "https://maps.gstatic.com/mapfiles/place_api/icons/v1/png_71/worship_jewish-71.png", "icon_background_color": "#7B9EB0", "icon_mask_base_uri": "https://maps.gstatic.com/mapfiles/place_api/icons/v2/worship_jewish_pinlet", "name": "\u05d1\u05d9\u05ea \u05d4\u05db\u05e0\u05e1\u05ea \u05d7\u05e0\u05d9\u05db\u05d9 \u05d4\u05d9\u05e9\u05d9\u05d1\u05d5\u05ea", "place_id": "ChIJfwe48YjFAhURKzxJqtX0Qbk", "plus_code": {"compound_code": "QX2R+9F Bet Shemesh", "global_code": "8G3PQX2R+9F"}, "rating": 5, "reference": "ChIJfwe48YjFAhURKzxJqtX0Qbk", "scope": "GOOGLE", "types": ["synagogue", "place_of_worship", "point_of_interest", "establishment"], "user_ratings_total": 2, "vicinity": "Ha-Mishlat St 10, Bet Shemesh"}], "status": "OK"}
