{"html_attributions": [], "next_page_token": "AeJbb3c_1OrjG0ftc1-gJ2h-CpGmt6GuwNb2tS49fEpqc2M6S1cZI_LyefN8N3p3ZIec1IFW1_QMTVNe-LI1QgI0CF59gRCIQyKnYjMf5Pa0VcxzVSnvkvXBemOPcsf1Sby1d1TUFgUwsVanPccb5nB_NtPvTM5o5QeNA3VXHQ5wjn2d5vgA2F_2EUeqFcFKpB6aK-w7pqFyZhQ7gAUrWIbIsazu7Bi-EfNesNmoNnPhZY-XSUOQfze-rrly6jsWbZGadx9jE-WR_9buIJEviRvcLAvZ8VL6umQG_bmjVF3kxRVA6PsG041n-cPXvs2OTfkeLVoUo9EjGhGJ54U4KNOPmSkSsWWmo3fTIOg9bJIgcqCN3tkPhQ8H-FBrbPPuNeHkjvsdAltYI0-vNmYUdzXnCiwA8P4TGVOzLYa17YRa5zGk6AYMH6XYwJyUCjc3FkhHj1vofBvZKg", "results": [{"business_status": "OPERATIONAL", "geometry": {"location": {"lat": 32.0844774, "lng": 34.7724054}, "viewport": {"northeast": {"lat": 32.08585517989272, "lng": 34.77368382989272}, "southwest": {"lat": 32.08315552010728, "lng": 34.77098417010728}}}, "icon": "https://maps.gstatic.com/mapfiles/place_api/icons/v1/png_71/worship_jewish-71.png", "icon_background_color": "#7B9EB0", "icon_mask_base_uri": "https://maps.gstatic.com/mapfiles/place_api/icons/v2/worship_jewish_pinlet", "name": "North Central Synagogue", "photos": [{"height": 3024, "html_attributions": ["<a href=\"https://maps.google.com/maps/contrib/112544347406469382660\">Idan SHUNEM HALEVI</a>"], "photo_reference": "AeJbb3dx-He9hjEMEkol9BoMtask5YiXp2k1xRKvoKH33qB4zQlB1KMHwC6xknT3xVeU0dLEiiJeyrnRRq019geYNObtJeo1HDT6ePe8H1mMqwuT9XZKIOWxzI3Ujp2SHlu0Ydo5-mbvRBCgZ2Oe7SaO2mR61hr7O0gCRXeOld7rStw4X2oK", "width": 4032}], "place_id": "ChIJr0YwjXdMHRURJRTs5ijxycg", "plus_code": {"compound_code": "3QMC+QX Tel Aviv", "global_code": "8G4P3QMC+QX"}, "rating": 4.6, "reference": "ChIJr0YwjXdMHRURJRTs5ijxycg", "scope": "GOOGLE", "types": ["synagogue", "place_of_worship", "point_of_interest", "establishment"], "user_ratings_total": 39, "vicinity": "Ben Yehuda St 126, Tel Aviv"}, {"business_status": "OPERATIONAL", "geometry": {"location": {"lat": 32.0768444, "lng": 34.775197}, "viewport": {"northeast": {"lat": 32.07831912989273, "lng": 34.77641812989271}, "southwest": {"lat": 32.07561947010728, "lng": 34.77371847010727}}}, "icon": "https://maps.gstatic.com/mapfiles/place_api/icons/v1/png_71/worship_jewish-71.png", "icon_background_color": "#7B9EB0", "icon_mask_base_uri": "https://maps.gstatic.com/mapfiles/place_api/icons/v2/worship_jewish_pinlet", "name": "Rosh Yehudi Synagogue", "photos": [{"height": 4032, "html_attributions": ["<a href=\"https://maps.google.com/maps/contrib/100765315751553194875\">\u05d0\u05d1\u05d9 \u05d7\u05d3\u05d3</a>"], "photo_reference": "AeJbb3cYNBXlBsdcc25Oc4c9odfPX9z2CO2LmmbvvY9ftrcpsXafSvvFQwKQuuJgfre7xhcugQFRqPHYa5NbwmHfjRiHnTXvOciiAGJUPeds1991gxcWgCNK0truBxn2Di52Ylk1hiV6tERF_IFOPzIy5GhTgJEhSyPHm-TqcLNJhEK5Fx80", "width": 3024}], "place_id": "ChIJJ47gvIBLHRUR51LETb7f0Z0", "plus_code": {"compound_code": "3QGG+P3 Tel Aviv", "global_code": "8G4P3QGG+P3"}, "rating": 4.7, "reference": "ChIJJ47gvIBLHRUR51LETb7f0Z0", "scope": "GOOGLE", "types": ["synagogue", "place_of_worship", "point_of_interest", "establishment"], "user_ratings_total": 48, "vicinity": "Bar Kochva St 54, Tel Aviv"}, {"business_status": "OPERATIONAL", "geometry": {"location": {"lat": 32.088453, "lng": 34.7729075}, "viewport": {"northeast": {"lat": 32.08974522989272, "lng": 34.77454342989272}, "southwest": {"lat": 32.08704557010728, "lng": 34.77184377010727}}}, "icon": "https://maps.gstatic.com/mapfiles/place_api/icons/v1/png_71/worship_jewish-71.png", "icon_background_color": "#7B9EB0", "icon_mask_base_uri": "https://maps.gstatic.com/mapfiles/place_api/icons/v2/worship_jewish_pinlet", "name": "Synagogue Ohel Israel", "photos": [{"height": 5312, "html_attributions": ["<a href=\"https://maps.google.com/maps/contrib/111269949841280076413\">DL H-LEVI</a>"], "photo_reference": "AeJbb3cMsXbpHFyBVm32yo_nXPGr8By2l4tWkajKHuMerzkTsRQRMOtoZzS9mw9O_fIpo0butzuz79l38mk7XPIjcqRZNol_p8VbtJM8H0SmmPb9OqNwBgTT6I0UGE09VDO0izsnX9qcidjhdbLBSHNE_1dPbFPaWj4C3BECrVukTMUa3Il_", "width": 2988}], "place_id": "ChIJMe5k_XVMHRURxaPZYBh8yQI", "plus_code": {"compound_code": "3QQF+95 Tel Aviv", "global_code": "8G4P3QQF+95"}, "rating": 4.3, "reference": "ChIJMe5k_XVMHRURxaPZYBh8yQI", "scope": "GOOGLE", "types": ["synagogue", "place_of_worship", "point_of_interest", "establishment"], "user_ratings_total": 11, "vicinity": "Ben Yehuda St 159, Tel Aviv"}, {"business_status": "OPERATIONAL", "geometry": {"location": {"lat": 32.0866358, "lng": 34.7833062}, "viewport": {"northeast": {"lat": 32.08797597989272, "lng": 34.78466502989273}, "southwest": {"lat": 32.08527632010728, "lng": 34.78196537010729}}}, "icon": "https://maps.gstatic.com/mapfiles/place_api/icons/v1/png_71/worship_jewish-71.png", "icon_background_color": "#7B9EB0", "icon_mask_base_uri": "https://maps.gstatic.com/mapfiles/place_api/icons/v2/worship_jewish_pinlet", "name": "Hechal Yehuda Synagogue", "photos": [{"height": 1350, "html_attributions": ["<a href=\"https://maps.google.com/maps/contrib/109246112914784042300\">\u05d9\u05d5\u05e0\u05d9 \u05d0\u05d9\u05d9\u05d1\u05e8</a>"], "photo_reference": "AeJbb3c4OLbbOryYeCU2F68wDoeN8sMmkacJzOyWSlp-WYXG_0AeKX4-R7oTlU2X7ar2L-Kp52RJyKLdXZkzoUGQz4SJXN6nw80_C2Bv98OoXsZ9pmTShWd3qfWJjRbu1PB29pKTYnhen7uBUgy510G8WmLb6aOSwddvfo0WNxpDzYfvKSHx", "width": 1080}], "place_id": "ChIJTQOWuI1LHRUR4K7vp1zXlAs", "plus_code": {"compound_code": "3QPM+M8 Tel Aviv", "global_code": "8G4P3QPM+M8"}, "rating": 4.6, "reference": "ChIJTQOWuI1LHRUR4K7vp1zXlAs", "scope": "GOOGLE", "types": ["synagogue", "place_of_worship", "point_of_interest", "establishment"], "user_ratings_total": 58, "vicinity": "\u05d1\u05df \u05e1\u05d5\u05e8\u05d5\u05e7 13, Tel Aviv"}, {"business_status": "OPERATIONAL", "geometry": {"location": {"lat": 32.0800162, "lng": 34.770978}, "viewport": {"northeast": {"lat": 32.08127772989271, "lng": 34.77232427989272}, "southwest": {"lat": 32.07857807010727, "lng": 34.76962462010728}}}, "icon": "https://maps.gstatic.com/mapfiles/place_api/icons/v1/png_71/worship_jewish-71.png", "icon_background_color": "#7B9EB0", "icon_mask_base_uri": "https://maps.gstatic.com/mapfiles/place_api/icons/v2/worship_jewish_pinlet", "name": "The Tel Aviv International Synagogue \u05d1\u05d9\u05ea \u05d4\u05db\u05e0\u05e1\u05ea \u05d4\u05d1\u05d9\u05e0\u05dc\u05d0\u05d5\u05de\u05d9 \u05e9\u05dc \u05ea\u05dc \u05d0\u05d1\u05d9\u05d1 \"\u05d1\u05d9\u05ea \u05d0\u05dc\"", "photos": [{"height": 1919, "html_attributions": ["<a href=\"https://maps.google.com/maps/contrib/108769196662593472783\">Rabbi Ariel Konstantyn</a>"], "photo_reference": "AeJbb3fcHVcMyTjTaoS39iQE7phpa9Q6IU4D2T7q0OaZvYHx4mKHI2cysTgtMhrMslfgPCP5M8ilfcWOzWAX6jaQ74H8x6ew9YLyJlSTDEXWuCw1Ij0Vdnn-DykKbZ9j9QZLk0sHw_3U92kFhHwSjxWvawnsmDQin_ZSVXy1MVP1Ilhg7SKg", "width": 3093}], "place_id": "ChIJtc0WL3lMHRURpj_qXeibH4s", "plus_code": {"compound_code": "3QJC+29 Tel Aviv", "global_code": "8G4P3QJC+29"}, "rating": 4.6, "reference": "ChIJtc0WL3lMHRURpj_qXeibH4s", "scope": "GOOGLE", "types": ["synagogue", "place_of_worship", "point_of_interest", "establishment"], "user_ratings_total": 89, "vicinity": "Frishman St 23, Tel Aviv"}, {"business_status": "OPERATIONAL", "geometry": {"location": {"lat": 32.0804681, "lng": 34.7764509}, "viewport": {"northeast": {"lat": 32.08179787989272, "lng": 34.77789597989272}, "southwest": {"lat": 32.07909822010728, "lng": 34.77519632010728}}}, "icon": "https://maps.gstatic.com/mapfiles/place_api/icons/v1/png_71/worship_jewish-71.png", "icon_background_color": "#7B9EB0", "icon_mask_base_uri": "https://maps.gstatic.com/mapfiles/place_api/icons/v2/worship_jewish_pinlet", "name": "Tiferet Tzvi Synagogue", "photos": [{"height": 3024, "html_attributions": ["<a href=\"https://maps.google.com/maps/contrib/111973950440310108650\">Avinoam Ordan</a>"], "photo_reference": "AeJbb3f3nefYo1u__gtPguP-KCcPPYIrLqYQZWHOnLx3y5mxBghegTURAzrnPFqnF2oeGKapbgxmHq8IJ9tw153AyP_RbfCJdT7VLyoIjKPyNCGB8xFZM_U0jhB0AVohInH-eK772Bs_XUuAVX444vohAgJpZBDcLHQkcahet6aGPRZ7vzFL", "width": 4032}], "place_id": "ChIJwxcKrYdLHRURBa7O9fEFwkA", "plus_code": {"compound_code": "3QJG+5H Tel Aviv", "global_code": "8G4P3QJG+5H"}, "rating": 4.8, "reference": "ChIJwxcKrYdLHRURBa7O9fEFwkA", "scope": "GOOGLE", "types": ["synagogue", "place_of_worship", "point_of_interest", "establishment"], "user_ratings_total": 16, "vicinity": "Herman Cohen St 9, Tel Aviv"}, {"business_status": "OPERATIONAL", "geometry": {"location": {"lat": 32.0924426, "lng": 34.7811735}, "viewport": {"northeast": {"lat": 32.09377517989272, "lng": 34.78264472989272}, "southwest": {"lat": 32.09107552010727, "lng": 34.77994507010728}}}, "icon": "https://maps.gstatic.com/mapfiles/place_api/icons/v1/png_71/worship_jewish-71.png", "icon_background_color": "#7B9EB0", "icon_mask_base_uri": "https://maps.gstatic.com/mapfiles/place_api/icons/v2/worship_jewish_pinlet", "name": "\u05d1\u05d9\u05ea \u05d4\u05db\u05e0\u05e1\u05ea \"\u05e9\u05dc\u05d5\u05dd\"", "place_id": "ChIJzxmmFfNLHRURciV3tR3-GmI", "plus_code": {"compound_code": "3QRJ+XF Tel Aviv", "global_code": "8G4P3QRJ+XF"}, "rating": 3.7, "reference": "ChIJzxmmFfNLHRURciV3tR3-GmI", "scope": "GOOGLE", "types": ["synagogue", "place_of_worship", "point_of_interest", "establishment"], "user_ratings_total": 3, "vicinity": "Yehoshu'a Bin Nun St 67, Tel Aviv"}, {"business_status": "OPERATIONAL", "geometry": {"location": {"lat": 32.0771039, "lng": 34.7755365}, "viewport": {"northeast": {"lat": 32.07849922989272, "lng": 34.77689912989273}, "southwest": {"lat": 32.07579957010728, "lng": 34.77419947010728}}}, "icon": "https://maps.gstatic.com/mapfiles/place_api/icons/v1/png_71/worship_jewish-71.png", "icon_background_color": "#7B9EB0", "icon_mask_base_uri": "https://maps.gstatic.com/mapfiles/place_api/icons/v2/worship_jewish_pinlet", "name": "Heikhal ha-Simkha Synagogue", "place_id": "ChIJVcJBx4BLHRURCYNIgtOLsuE", "plus_code": {"compound_code": "3QGG+R6 Tel Aviv", "global_code": "8G4P3QGG+R6"}, "rating": 5, "reference": "ChIJVcJBx4BLHRURCYNIgtOLsuE", "scope": "GOOGLE", "types": ["synagogue", "place_of_worship", "point_of_interest", "establishment"], "user_ratings_total": 6, "vicinity": "Tel Aviv-Yafo"}, {"business_status": "OPERATIONAL", "geometry": {"location": {"lat": 32.0823995, "lng": 34.78368469999999}, "viewport": {"northeast": {"lat": 32.08378172989272, "lng": 34.78499887989272}, "southwest": {"lat": 32.08108207010727, "lng": 34.78229922010728}}}, "icon": "https://maps.gstatic.com/mapfiles/place_api/icons/v1/png_71/worship_jewish-71.png", "icon_background_color": "#7B9EB0", "icon_mask_base_uri": "https://maps.gstatic.com/mapfiles/place_api/icons/v2/worship_jewish_pinlet", "name": "\u05d1\u05d9\u05ea \u05d4\u05db\u05e0\u05e1\u05ea \u05d5\u05d1\u05d9\u05ea \u05d4\u05de\u05d3\u05e8\u05e9 \u05e2\u05d8\u05e8\u05ea \u05de\u05e8\u05d3\u05db\u05d9", "photos": [{"height": 3024, "html_attributions": ["<a href=\"https://maps.google.com/maps/contrib/103487936470218309763\">Ilan Simovich</a>"], "photo_reference": "AeJbb3faAGrVfaW3ySQ0f9XI1CN_HjO8XXjDypbJiTb8VmDpm1MOjgkR_1wJvl0KhXXDm3LrtLbTFKmPWKnWVr2999aSq-KMKFgnBExCcWPM3G-6rSn_UzDNWbx6r7VKz-RT9UfL6XuK0vH_p_K3u3m8huWRIK5S7sCxdPacaV3ITuAKyag0", "width": 4032}], "place_id": "ChIJpc47to9LHRURUakMzX6Galw", "plus_code": {"compound_code": "3QJM+XF Tel Aviv", "global_code": "8G4P3QJM+XF"}, "rating": 4.5, "reference": "ChIJpc47to9LHRURUakMzX6Galw", "scope": "GOOGLE", "types": ["synagogue", "place_of_worship", "point_of_interest", "establishment"], "user_ratings_total": 8, "vicinity": "David Bloch St 24, Tel Aviv"}, {"business_status": "OPERATIONAL", "geometry": {"location": {"lat": 32.0882616, "lng": 34.7732387}, "viewport": {"northeast": {"lat": 32.08959047989271, "lng": 34.77469247989272}, "southwest": {"lat": 32.08689082010727, "lng": 34.77199282010728}}}, "icon": "https://maps.gstatic.com/mapfiles/place_api/icons/v1/png_71/worship_jewish-71.png", "icon_background_color": "#7B9EB0", "icon_mask_base_uri": "https://maps.gstatic.com/mapfiles/place_api/icons/v2/worship_jewish_pinlet", "name": "Synagogue Rabbi Simeon bar Yochai", "photos": [{"height": 3104, "html_attributions": ["<a href=\"https://maps.google.com/maps/contrib/104330516926575899355\">\u05d0\u05e1\u05e3 \u05d8\u05d1\u05e6\u05e0\u05d9\u05e7</a>"], "photo_reference": "AeJbb3dDAZamRwJE-HUvhaYFwtrhgQykLnl1jNzo4OS6eXl0pv_XeGcbWDwCgOg3vbWj05RTr7y5_CLRuq24KRX_s9KfvCNB8yG_WX4c0pJ4w_KZtxqxvuJEpLL20AeamFE_3f-D50I8tlJsiQupa7K6t3MgoGUS2FSB5k9Ds47kcLAJNllb", "width": 4192}], "place_id": "ChIJhQf9BXZMHRURNnxjqdiB_pM", "plus_code": {"compound_code": "3QQF+87 Tel Aviv", "global_code": "8G4P3QQF+87"}, "rating": 5, "reference": "ChIJhQf9BXZMHRURNnxjqdiB_pM", "scope": "GOOGLE", "types": ["synagogue", "place_of_worship", "point_of_interest", "establishment"], "user_ratings_total": 5, "vicinity": "Ben Yehuda St 155, Tel Aviv"}, {"business_status": "OPERATIONAL", "geometry": {"location": {"lat": 32.0866726, "lng": 34.7794743}, "viewport": {"northeast": {"lat": 32.08800287989273, "lng": 34.78089342989272}, "southwest": {"lat": 32.08530322010728, "lng": 34.77819377010728}}}, "icon": "https://maps.gstatic.com/mapfiles/place_api/icons/v1/png_71/worship_jewish-71.png", "icon_background_color": "#7B9EB0", "icon_mask_base_uri": "https://maps.gstatic.com/mapfiles/place_api/icons/v2/worship_jewish_pinlet", "name": "Haihal Avi David Synagouge", "place_id": "ChIJVWyY_4tLHRURgwH9sUPZGXg", "plus_code": {"compound_code": "3QPH+MQ Tel Aviv", "global_code": "8G4P3QPH+MQ"}, "rating": 5, "reference": "ChIJVWyY_4tLHRURgwH9sUPZGXg", "scope": "GOOGLE", "types": ["synagogue", "place_of_worship", "point_of_interest", "establishment"], "user_ratings_total": 7, "vicinity": "Yehoshu'a Bin Nun St 7, Tel Aviv"}, {"business_status": "OPERATIONAL", "geometry": {"location": {"lat": 32.0798231, "lng": 34.7769696}, "viewport": {"northeast": {"lat": 32.08115722989272, "lng": 34.77839337989271}, "southwest": {"lat": 32.07845757010728, "lng": 34.77569372010727}}}, "icon": "https://maps.gstatic.com/mapfiles/place_api/icons/v1/png_71/worship_jewish-71.png", "icon_background_color": "#7B9EB0", "icon_mask_base_uri": "https://maps.gstatic.com/mapfiles/place_api/icons/v2/worship_jewish_pinlet", "name": "Binyamin Shemesh Synagogue", "photos": [{"height": 1080, "html_attributions": ["<a href=\"https://maps.google.com/maps/contrib/106337299827554869699\">Moises Zack</a>"], "photo_reference": "AeJbb3cKnb3ZmTSizSRqcaF3LxyNW5YX0KOQkfZ5mOZ5MHoY2k1jkG_HWQ0fPd-Qbr1qlC4M0uIPk3DM6v4n6_96nMjnVtVr9gvPoD_HmUcCoKCYinFwCJSsBZ8esKMgclVGGN_HjnIXfgEpMv2amIYuAMMI2BRJ_tRiZGRUL20DWdVKGl28", "width": 1920}], "place_id": "ChIJn6mb_4ZLHRURixEnEyAfORY", "plus_code": {"compound_code": "3QHG+WQ Tel Aviv", "global_code": "8G4P3QHG+WQ"}, "rating": 4.9, "reference": "ChIJn6mb_4ZLHRURixEnEyAfORY", "scope": "GOOGLE", "types": ["synagogue", "place_of_worship", "point_of_interest", "establishment"], "user_ratings_total": 13, "vicinity": "Shlomo HaMelekh St 45, Tel Aviv"}, {"business_status": "OPERATIONAL", "geometry": {"location": {"lat": 32.0839462, "lng": 34.7758654}, "viewport": {"northeast": {"lat": 32.08524692989272, "lng": 34.77717882989273}, "southwest": {"lat": 32.08254727010728, "lng": 34.77447917010728}}}, "icon": "https://maps.gstatic.com/mapfiles/place_api/icons/v1/png_71/worship_jewish-71.png", "icon_background_color": "#7B9EB0", "icon_mask_base_uri": "https://maps.gstatic.com/mapfiles/place_api/icons/v2/worship_jewish_pinlet", "name": "Laszlo synagogue", "photos": [{"height": 3104, "html_attributions": ["<a href=\"https://maps.google.com/maps/contrib/104330516926575899355\">\u05d0\u05e1\u05e3 \u05d8\u05d1\u05e6\u05e0\u05d9\u05e7</a>"], "photo_reference": "AeJbb3dUt9RuhI_I8IyrCKfBoWdkLfFmsUsRHIgC8tV89U7sMfxoRb5Jznyf7J_mZ492XWO-ZBwow9o5Qy69lfeSfgnjkDoVIJQCUqjEupoKzXRfnFHv_FSem7zpOnipX_Rq5GeXK4FTY5AlYYHTKIEmJSXo5L-5yI3TfBO1rM922DK3J6qe", "width": 4192}], "place_id": "ChIJKT3maIhLHRURUUZn1KQHbQY", "plus_code": {"compound_code": "3QMG+H8 Tel Aviv", "global_code": "8G4P3QMG+H8"}, "rating": 4.9, "reference": "ChIJKT3maIhLHRURUUZn1KQHbQY", "scope": "GOOGLE", "types": ["synagogue", "place_of_worship", "point_of_interest", "establishment"], "user_ratings_total": 10, "vicinity": "Sderot Ben Gurion 71, Tel Aviv"}, {"business_status": "OPERATIONAL", "geometry": {"location": {"lat": 32.0806146, "lng": 34.7847447}, "viewport": {"northeast": {"lat": 32.08203987989272, "lng": 34.78603587989272}, "southwest": {"lat": 32.07934022010728, "lng": 34.78333622010727}}}, "icon": "https://maps.gstatic.com/mapfiles/place_api/icons/v1/png_71/worship_jewish-71.png", "icon_background_color": "#7B9EB0", "icon_mask_base_uri": "https://maps.gstatic.com/mapfiles/place_api/icons/v2/worship_jewish_pinlet", "name": "Goren Synagogue", "photos": [{"height": 4032, "html_attributions": ["<a href=\"https://maps.google.com/maps/contrib/100087883780385221871\">Michael Salaverry</a>"], "photo_reference": "AeJbb3chWvWmVmzOaHhu5a4mK2N09ZQcT8z3GayGzhsQJTdBLUa6Bxz_HA0Ar7MwZncZVauGJOJY0UiEWukBcMvgovs9cxsH_j4XNOdcXyYnsI8Dk1uiLMiQqytVEUJH_1r4leAvrn5bGnh5hLvMHxLGda8YtgBXc6SHeOPv2x3c69HGFW4D", "width": 2268}], "place_id": "ChIJV1-B5I9LHRUR_rn4HfDZ84o", "plus_code": {"compound_code": "3QJM+6V Tel Aviv", "global_code": "8G4P3QJM+6V"}, "rating": 4.6, "reference": "ChIJV1-B5I9LHRUR_rn4HfDZ84o", "scope": "GOOGLE", "types": ["synagogue", "place_of_worship", "point_of_interest", "establishment"], "user_ratings_total": 27, "vicinity": "Modigliani St 20, Tel Aviv"}, {"business_status": "OPERATIONAL", "geometry": {"location": {"lat": 32.0789818, "lng": 34.7852471}, "viewport": {"northeast": {"lat": 32.08035152989272, "lng": 34.78659892989272}, "southwest": {"lat": 32.07765187010727, "lng": 34.78389927010728}}}, "icon": "https://maps.gstatic.com/mapfiles/place_api/icons/v1/png_71/worship_jewish-71.png", "icon_background_color": "#7B9EB0", "icon_mask_base_uri": "https://maps.gstatic.com/mapfiles/place_api/icons/v2/worship_jewish_pinlet", "name": "Gvurat Tsiyon Synagogue", "place_id": "ChIJlT3ptJpLHRUR5py8AJ5CCSE", "plus_code": {"compound_code": "3QHP+G3 Tel Aviv", "global_code": "8G4P3QHP+G3"}, "rating": 5, "reference": "ChIJlT3ptJpLHRUR5py8AJ5CCSE", "scope": "GOOGLE", "types": ["synagogue", "place_of_worship", "point_of_interest", "establishment"], "user_ratings_total": 1, "vicinity": "Tel Aviv"}, {"business_status": "OPERATIONAL", "geometry": {"location": {"lat": 32.0814081, "lng": 34.7708042}, "viewport": {"northeast": {"lat": 32.08277722989271, "lng": 34.77209847989272}, "southwest": {"lat": 32.08007757010727, "lng": 34.76939882010728}}}, "icon": "https://maps.gstatic.com/mapfiles/place_api/icons/v1/png_71/worship_jewish-71.png", "icon_background_color": "#7B9EB0", "icon_mask_base_uri": "https://maps.gstatic.com/mapfiles/place_api/icons/v2/worship_jewish_pinlet", "name": "Ichud Shivat Tsiyon Synagogue", "opening_hours": {"open_now": true}, "photos": [{"height": 2448, "html_attributions": ["<a href=\"https://maps.google.com/maps/contrib/102895408376017184186\">Moshe Aziz</a>"], "photo_reference": "AeJbb3cBBDc2ZUJdF7ZQcbFHczfvdD9-iraZUX15oCOTQtoHbM6UudWMYerXssVUo64SSoe6v4e7Rh6Av_UofCBRIOOwbmbD03rlSCjGM5_zqj55GDQamFz6v_WM_6AZcnZfxffxLgZzTj1ztvwxqjp_o92vRKLvr_p-oCNkLzJu-zEybYkC", "width": 3264}], "place_id": "ChIJ2XaZBXlMHRURccxmsAnazEE", "plus_code": {"compound_code": "3QJC+H8 Tel Aviv", "global_code": "8G4P3QJC+H8"}, "rating": 4.5, "reference": "ChIJ2XaZBXlMHRURccxmsAnazEE", "scope": "GOOGLE", "types": ["synagogue", "place_of_worship", "point_of_interest", "establishment"], "user_ratings_total": 49, "vicinity": "Ben Yehuda St 84-86, Tel Aviv"}, {"business_status": "OPERATIONAL", "geometry": {"location": {"lat": 32.0952074, "lng": 34.7764675}, "viewport": {"northeast": {"lat": 32.09654202989272, "lng": 34.77775347989272}, "southwest": {"lat": 32.09384237010728, "lng": 34.77505382010727}}}, "icon": "https://maps.gstatic.com/mapfiles/place_api/icons/v1/png_71/worship_jewish-71.png", "icon_background_color": "#7B9EB0", "icon_mask_base_uri": "https://maps.gstatic.com/mapfiles/place_api/icons/v2/worship_jewish_pinlet", "name": "The Great Synagogue in North Tel Aviv", "photos": [{"height": 360, "html_attributions": ["<a href=\"https://maps.google.com/maps/contrib/106085197747617721128\">A Google User</a>"], "photo_reference": "AeJbb3dWh2vNlvDNb3Pl2pJvUvMBI2ep3BAeNr_ZIZmEcOSckR3Rb-kMG9CwzaJWBHhsjadgesLYxlrspSR98uXKt8Ma6XXrDD7N7n4W5AIfyongduAj88_mscKj524qUm8bSUBFxBDNjLgAyZJ5NyOGGOqNBvb_O-OVqFCYUZvrDUU8qZh9", "width": 540}], "place_id": "ChIJA-x4qfVLHRUR7lLQmgZPXgc", "plus_code": {"compound_code": "3QWG+3H Tel Aviv", "global_code": "8G4P3QWG+3H"}, "rating": 5, "reference": "ChIJA-x4qfVLHRUR7lLQmgZPXgc", "scope": "GOOGLE", "types": ["synagogue", "place_of_worship", "point_of_interest", "establishment"], "user_ratings_total": 13, "vicinity": "Dizengoff St 312, Tel Aviv"}, {"business_status": "OPERATIONAL", "geometry": {"location": {"lat": 32.0784315, "lng": 34.7806799}, "viewport": {"northeast": {"lat": 32.07985062989273, "lng": 34.78203157989272}, "southwest": {"lat": 32.07715097010728, "lng": 34.77933192010727}}}, "icon": "https://maps.gstatic.com/mapfiles/place_api/icons/v1/png_71/worship_jewish-71.png", "icon_background_color": "#7B9EB0", "icon_mask_base_uri": "https://maps.gstatic.com/mapfiles/place_api/icons/v2/worship_jewish_pinlet", "name": "Central Synagogue Meyer Hall", "photos": [{"height": 3024, "html_attributions": ["<a href=\"https://maps.google.com/maps/contrib/108546681400560644292\">Dima Volsky</a>"], "photo_reference": "AeJbb3fR5HqDbNOnLvnFT2YcZrO3vOkCNVsf4QHEbLaMoqfyonV1Sm0iJ8Pf7S6i6jht7QWwPKPuRzgtGrCNawblgjujOaqswk-9diBHqpY2k_O-EFSkHxTOtW0FJI1SA8z9uguc5TtLkwxV_bOF7tACC-hq6mVI7DH3RjV8PYk6mD2aqraM", "width": 4032}], "place_id": "ChIJgY4VNIRLHRUR2QlKx2gpLQE", "plus_code": {"compound_code": "3QHJ+97 Tel Aviv", "global_code": "8G4P3QHJ+97"}, "rating": 4.6, "reference": "ChIJgY4VNIRLHRUR2QlKx2gpLQE", "scope": "GOOGLE", "types": ["synagogue", "place_of_worship", "point_of_interest", "establishment"], "user_ratings_total": 28, "vicinity": "Manne St 12, Tel Aviv"}, {"business_status": "OPERATIONAL", "geometry": {"location": {"lat": 32.0897818, "lng": 34.77727}, "viewport": {"northeast": {"lat": 32.09105082989272, "lng": 34.77852442989272}, "southwest": {"lat": 32.08835117010727, "lng": 34.77582477010727}}}, "icon": "https://maps.gstatic.com/mapfiles/place_api/icons/v1/png_71/worship_jewish-71.png", "icon_background_color": "#7B9EB0", "icon_mask_base_uri": "https://maps.gstatic.com/mapfiles/place_api/icons/v2/worship_jewish_pinlet", "name": "\u05d1\u05d9\u05ea \u05d9\u05e2\u05e7\u05d1 \u05d9\u05d5\u05e1\u05e3", "opening_hours": {"open_now": false}, "photos": [{"height": 4608, "html_attributions": ["<a href=\"https://maps.google.com/maps/contrib/105868367762361379548\">\u05d0\u05dc\u05d9\u05d4\u05d5 \u05d1\u05e8\u05d5\u05da \u05d2\u05d5\u05e8\u05e4\u05d9\u05d9\u05df</a>"], "photo_reference": "AeJbb3c4Dn7C9g6_XjvLly_nKmmA7gf5tD-dxMm3VnqfKFPyL0aaVjehzjZy_nzJOpr68l1XEQ4Wbmtqclu6fun4bsThxwT1w68B9VSa8ItmvLPNqOO9rAqbAE8x8gv2rz7mN7iABdkyiBIu17YN3EgL6e1GeX6g6DoALNrLPRhWBdbifiU", "width": 3456}], "place_id": "ChIJGz-6sAJKHRURnprCi0PKYGk", "plus_code": {"compound_code": "3QQG+WW Tel Aviv", "global_code": "8G4P3QQG+WW"}, "rating": 4.7, "reference": "ChIJGz-6sAJKHRURnprCi0PKYGk", "scope": "GOOGLE", "types": ["synagogue", "place_of_worship", "point_of_interest", "establishment"], "user_ratings_total": 17, "vicinity": "Pki'in St 12 \u05d0, Tel Aviv"}, {"business_status": "OPERATIONAL", "geometry": {"location": {"lat": 32.0885598, "lng": 34.7733849}, "viewport": {"northeast": {"lat": 32.08989467989272, "lng": 34.77480907989273}, "southwest": {"lat": 32.08719502010727, "lng": 34.77210942010728}}}, "icon": "https://maps.gstatic.com/mapfiles/place_api/icons/v1/png_71/worship_jewish-71.png", "icon_background_color": "#7B9EB0", "icon_mask_base_uri": "https://maps.gstatic.com/mapfiles/place_api/icons/v2/worship_jewish_pinlet", "name": "\u05d1\u05d9\u05ea \u05db\u05e0\u05e1\u05ea \"\u05e8\u05de\u05d4\"", "place_id": "ChIJxwB7_XVMHRUR30Vx9V9f5GQ", "plus_code": {"compound_code": "3QQF+C9 Tel Aviv", "global_code": "8G4P3QQF+C9"}, "rating": 4.3, "reference": "ChIJxwB7_XVMHRUR30Vx9V9f5GQ", "scope": "GOOGLE", "types": ["synagogue", "place_of_worship", "point_of_interest", "establishment"], "user_ratings_total": 3, "vicinity": "Ben Yehuda St 159, Tel Aviv"}], "status": "OK"}
